City_ID,City,Lat,Lng,Max Temp,Humidity,Cloudiness,Wind Speed,Country,current Description
0,Kavaratti,10.5669,72.642,81.27,77,61,17.96,IN,broken clouds
1,Cherskiy,68.75,161.3,58.28,77,100,10.07,RU,light rain
2,Cape Town,-33.9258,18.4232,53.11,86,0,3.44,ZA,clear sky
3,Saint George,37.1041,-113.5841,82.99,52,0,4.61,US,clear sky
4,Ornskoldsvik,63.2909,18.7153,54.55,100,0,4.61,SE,clear sky
5,Rikitea,-23.1203,-134.9692,68.07,76,100,14.85,PF,light rain
6,Matata,-37.8833,176.75,61.95,90,72,5.59,NZ,broken clouds
7,Arraial Do Cabo,-22.9661,-42.0278,65.28,70,82,9.75,BR,broken clouds
8,Waipawa,-41.4122,175.5153,52.05,90,96,4.21,NZ,light rain
9,Chapais,49.7834,-74.8492,60.58,90,0,2.68,CA,clear sky
10,Mar Del Plata,-38.0023,-57.5575,48.22,90,100,3.44,AR,overcast clouds
11,Dikson,73.5069,80.5464,42.33,98,100,22.93,RU,light rain
12,Punta Arenas,-53.15,-70.9167,35.71,87,75,5.75,CL,broken clouds
13,Mataura,-46.1927,168.8643,50.49,76,70,1.59,NZ,broken clouds
14,Castro,-24.7911,-50.0119,45.88,98,10,3.4,BR,clear sky
15,Tecoanapa,16.5167,-98.75,80.04,80,31,4.72,MX,scattered clouds
16,Shiyan,32.6475,110.7781,107.01,30,100,5.23,CN,overcast clouds
17,Hobart,-42.8794,147.3294,50.05,69,75,18.41,AU,moderate rain
18,Morehead,37.2711,-87.1764,68.79,99,0,0.0,US,mist
19,Dingle,10.9995,122.6711,77.22,93,100,9.35,PH,moderate rain
20,Grand Gaube,-20.0064,57.6608,74.37,61,28,13.0,MU,scattered clouds
21,Huanren,41.2647,125.3667,64.24,97,100,4.45,CN,overcast clouds
22,Nikolskoye,59.7035,30.7861,64.87,59,17,9.4,RU,few clouds
23,Barranca,-10.75,-77.7667,60.66,84,86,6.55,PE,overcast clouds
24,Tuxpan,19.55,-103.4,64.26,97,98,1.5,MX,overcast clouds
25,Albany,42.6001,-73.9662,73.81,75,100,1.99,US,overcast clouds
26,Saint-Denis,48.9167,2.3333,63.75,78,0,5.75,FR,clear sky
27,Riyadh,24.6877,46.7219,87.94,13,62,2.48,SA,broken clouds
28,Chokurdakh,70.6333,147.9167,70.2,48,77,6.98,RU,broken clouds
29,Buckingham,51.9997,-0.9878,55.45,93,92,5.08,GB,overcast clouds
30,Morant Bay,17.8815,-76.4093,82.02,82,17,7.83,JM,few clouds
31,Rawson,-43.3002,-65.1023,50.22,63,40,30.87,AR,scattered clouds
32,Busselton,-33.65,115.3333,59.63,48,1,11.3,AU,clear sky
33,Talaya,61.3833,152.75,58.35,63,74,16.51,RU,broken clouds
34,Verkhnyaya Inta,65.9811,60.3094,68.81,56,7,9.51,RU,clear sky
35,Provideniya,64.3833,-173.3,50.36,87,0,11.18,RU,clear sky
36,Ushuaia,-54.8,-68.3,38.86,75,75,3.44,AR,broken clouds
37,Marilia,-22.2139,-49.9458,54.21,87,14,6.15,BR,few clouds
38,Hithadhoo,-0.6,73.0833,82.0,77,54,13.89,MV,broken clouds
39,Hambantota,6.1241,81.1185,88.14,70,20,18.41,LK,few clouds
40,Norman Wells,65.282,-126.8329,59.04,88,75,8.05,CA,light intensity shower rain
41,Hay River,60.8156,-115.7999,67.98,52,100,4.61,CA,overcast clouds
42,Port Elizabeth,-33.918,25.5701,51.31,94,0,5.75,ZA,clear sky
43,San Patricio,28.017,-97.5169,85.89,79,89,12.66,US,overcast clouds
44,Oistins,13.0667,-59.5333,80.69,83,40,11.5,BB,scattered clouds
45,Nanortalik,60.1432,-45.2371,38.98,91,9,7.4,GL,clear sky
46,Vaini,-21.2,-175.2,75.36,88,40,10.36,TO,scattered clouds
47,Avarua,-21.2078,-159.775,73.45,88,100,3.44,CK,overcast clouds
48,Hermanus,-34.4187,19.2345,49.8,78,83,1.77,ZA,broken clouds
49,Butaritari,3.0707,172.7902,82.56,73,23,15.32,KI,few clouds
50,Krasnoselkup,65.7,82.4667,55.44,49,100,9.01,RU,overcast clouds
51,Egvekinot,66.3167,-179.1667,51.24,57,0,5.12,RU,clear sky
52,Hervey Bay,-25.2986,152.8535,72.01,58,37,5.99,AU,scattered clouds
53,Le Mars,42.7942,-96.1656,68.36,100,0,0.0,US,clear sky
54,Cabo San Lucas,22.8909,-109.9124,85.51,71,4,1.99,MX,clear sky
55,Kutum,14.2,24.6667,72.14,77,99,12.55,SD,overcast clouds
56,Guerrero Negro,27.9769,-114.0611,70.18,80,78,14.83,MX,broken clouds
57,Ilulissat,69.2167,-51.1,34.56,72,100,8.32,GL,overcast clouds
58,Touros,-5.1989,-35.4608,71.19,91,68,11.74,BR,broken clouds
59,New Norfolk,-42.7826,147.0587,49.71,78,100,1.01,AU,overcast clouds
60,Kruisfontein,-34.0033,24.7314,48.92,88,23,6.67,ZA,few clouds
61,Port Macquarie,-31.4333,152.9167,68.9,51,23,16.91,AU,few clouds
62,Bubaque,11.2833,-15.8333,77.81,82,100,12.19,GW,overcast clouds
63,Havre-Saint-Pierre,50.2334,-63.5986,62.96,94,75,2.3,CA,broken clouds
64,Maues,-3.3836,-57.7186,77.94,62,94,1.68,BR,overcast clouds
65,San Cristobal,7.7669,-72.225,68.18,98,100,3.78,VE,overcast clouds
66,Bardiyah,31.7561,25.0865,77.34,78,0,8.39,LY,clear sky
67,Puerto Ayora,-0.7393,-90.3518,67.55,93,65,1.01,EC,broken clouds
68,Thompson,55.7435,-97.8558,55.56,71,20,4.61,CA,few clouds
69,Kapaa,22.0752,-159.319,79.11,73,40,16.11,US,scattered clouds
70,Hofn,64.2539,-15.2082,47.21,86,100,6.51,IS,overcast clouds
71,Santiago Del Estero,-27.7951,-64.2615,53.22,34,97,6.51,AR,overcast clouds
72,Dudinka,69.4058,86.1778,51.62,58,79,6.8,RU,broken clouds
73,Sitka,57.0531,-135.33,62.49,77,0,0.0,US,clear sky
74,Geraldton,-28.7667,114.6,66.61,55,0,17.27,AU,clear sky
75,Flinders,-34.5833,150.8552,71.19,42,88,8.99,AU,overcast clouds
76,Saint Anthony,45.0205,-93.218,68.32,84,0,0.0,US,clear sky
77,Khatanga,71.9667,102.5,48.79,62,100,10.71,RU,overcast clouds
78,Cairns,-16.9167,145.7667,84.07,62,75,19.57,AU,broken clouds
79,Barrow,71.2906,-156.7887,33.82,86,100,18.41,US,overcast clouds
80,Raudeberg,61.9875,5.1352,52.47,32,72,24.72,NO,broken clouds
81,Mahebourg,-20.4081,57.7,74.25,73,75,12.66,MU,broken clouds
82,Burnie,-41.0667,145.9167,49.91,92,100,10.56,AU,light rain
83,Victoria,22.2855,114.1577,92.97,76,98,7.0,HK,overcast clouds
84,Constitucion,-35.3333,-72.4167,51.94,85,0,1.72,CL,clear sky
85,Marshfield,44.6689,-90.1718,60.75,88,0,6.91,US,clear sky
86,Tuktoyaktuk,69.4541,-133.0374,39.2,81,100,11.5,CA,overcast clouds
87,Coquimbo,-29.9533,-71.3436,53.33,87,100,2.3,CL,overcast clouds
88,Yugorsk,61.3133,63.3319,75.63,45,19,6.42,RU,few clouds
89,Laguna,38.421,-121.4238,77.29,64,0,8.05,US,clear sky
90,Nauta,-4.5061,-73.5757,65.64,81,92,2.17,PE,overcast clouds
91,Hilo,19.7297,-155.09,78.53,84,75,9.22,US,broken clouds
92,Ribeira Grande,38.5167,-28.7,72.36,81,89,8.77,PT,overcast clouds
93,Lahaina,20.8783,-156.6825,82.4,83,7,13.09,US,clear sky
94,Arcachon,44.5875,-1.0519,68.05,94,100,4.61,FR,mist
95,Puerto Gaitan,4.3133,-72.0816,68.23,80,96,7.07,CO,overcast clouds
96,Salta,-24.7859,-65.4117,46.99,49,75,6.91,AR,broken clouds
97,Ancud,-41.8697,-73.8203,45.82,92,100,2.86,CL,overcast clouds
98,Severo-Kurilsk,50.6789,156.125,59.38,88,100,5.73,RU,overcast clouds
99,Georgetown,5.4112,100.3354,87.89,74,40,3.44,MY,scattered clouds
100,Homer,59.6425,-151.5483,58.8,66,75,10.0,US,broken clouds
101,Zarubino,42.63,131.0922,70.07,92,100,15.82,RU,light rain
102,Chuy,-33.6971,-53.4616,45.93,85,19,4.36,UY,few clouds
103,College,64.8569,-147.8028,69.75,68,75,3.44,US,light rain
104,Dumai,1.6833,101.45,80.53,74,100,0.67,ID,overcast clouds
105,Portland,45.5234,-122.6762,79.03,55,75,6.91,US,broken clouds
106,Langres,47.8333,5.3333,51.19,67,35,2.91,FR,scattered clouds
107,Bambanglipuro,-7.95,110.2833,82.27,71,99,14.7,ID,overcast clouds
108,Acapulco,16.8634,-99.8901,80.04,83,21,6.08,MX,few clouds
109,At-Bashi,41.1702,75.8106,63.93,19,53,2.17,KG,broken clouds
110,Saint-Philippe,-21.3585,55.7679,72.99,68,44,12.88,RE,scattered clouds
111,Saint-Augustin,51.226,-58.6502,63.46,96,30,12.73,CA,scattered clouds
112,Santa Maria,-29.6842,-53.8069,48.22,94,0,3.96,BR,clear sky
113,Kodiak,57.79,-152.4072,53.11,100,100,19.57,US,mist
114,Aykhal,66.0,111.5,40.05,80,100,9.98,RU,overcast clouds
115,Leningradskiy,69.3833,178.4167,46.29,69,0,15.66,RU,clear sky
116,Ayna,-12.65,-73.9167,57.33,76,96,0.38,PE,overcast clouds
117,Hit,33.6416,42.8251,92.14,35,0,18.95,IQ,clear sky
118,Bom Jesus,-9.0744,-44.3586,70.0,65,94,4.85,BR,overcast clouds
119,Pacific Grove,36.6177,-121.9166,60.91,90,100,5.75,US,overcast clouds
120,Ugoofaaru,5.6667,73.0,81.66,78,100,15.88,MV,overcast clouds
121,Faanui,-16.4833,-151.75,78.35,72,100,18.16,PF,overcast clouds
122,Airai,-8.9266,125.4092,74.07,43,51,5.73,TL,broken clouds
123,Los Llanos De Aridane,28.6585,-17.9182,69.55,88,0,17.27,ES,clear sky
124,Henties Bay,-22.116,14.2845,55.33,77,25,5.88,NA,scattered clouds
125,Swellendam,-34.0226,20.4417,45.27,95,50,1.45,ZA,scattered clouds
126,Synya,65.3718,58.0387,69.96,51,0,3.11,RU,clear sky
127,Itoman,26.1247,127.6694,92.17,66,75,10.36,JP,broken clouds
128,Cabatuan,10.8794,122.486,76.69,92,100,7.18,PH,moderate rain
129,Soyo,-6.1349,12.3689,69.6,94,51,6.02,AO,broken clouds
130,Bluff,-46.6,168.3333,50.81,64,15,7.0,NZ,few clouds
131,Vostochnyy,55.8167,37.8667,67.98,39,100,7.76,RU,overcast clouds
132,Tasiilaq,65.6145,-37.6368,42.96,89,100,3.42,GL,overcast clouds
133,Port Alfred,-33.5906,26.891,53.96,79,0,7.38,ZA,clear sky
134,Zabolotovka,50.2737,39.3147,75.56,34,94,16.55,RU,overcast clouds
135,Cap Malheureux,-19.9842,57.6142,74.46,61,22,13.0,MU,few clouds
136,Caravelas,-17.7125,-39.2481,68.36,90,100,11.65,BR,overcast clouds
137,Jardim,-21.4803,-56.1381,63.5,85,0,4.61,BR,clear sky
138,Vila Velha,-20.3297,-40.2925,66.15,80,40,6.91,BR,scattered clouds
139,Muros,42.7762,-9.0603,69.15,88,30,5.91,ES,scattered clouds
140,Lodja,-3.4833,23.4333,72.32,85,94,4.5,CD,overcast clouds
141,Asau,46.4333,26.4,65.32,68,29,2.57,RO,scattered clouds
142,Atuona,-9.8,-139.0333,75.96,67,24,18.01,PF,few clouds
143,Saskylakh,71.9167,114.0833,52.41,51,99,11.86,RU,overcast clouds
144,Esperance,-33.8667,121.9,56.32,50,46,17.6,AU,scattered clouds
145,Maracacume,-2.0428,-45.9592,69.82,95,91,3.06,BR,overcast clouds
146,Conde,-7.2597,-34.9075,71.06,94,40,6.91,BR,scattered clouds
147,Bathsheba,13.2167,-59.5167,81.21,83,40,11.5,BB,scattered clouds
148,Mount Gambier,-37.8333,140.7667,48.31,88,100,7.29,AU,overcast clouds
149,Trincomalee,8.5711,81.2335,87.67,60,91,20.78,LK,overcast clouds
150,Montepuez,-13.1256,38.9997,67.42,73,54,10.22,MZ,broken clouds
151,Agadir,30.4202,-9.5982,68.45,52,4,0.74,MA,clear sky
152,El Dorado,38.7666,-120.5177,75.63,44,3,1.99,US,clear sky
153,Naze,28.3667,129.4833,88.72,72,15,15.77,JP,few clouds
154,Takhtamygda,54.1,123.5667,66.72,45,42,8.75,RU,scattered clouds
155,Sangolqui,-0.3341,-78.4522,52.29,83,64,4.65,EC,broken clouds
156,Ust-Tsilma,65.441,52.1498,69.28,46,10,4.05,RU,clear sky
157,Yei,4.095,30.6779,68.76,86,96,2.48,SS,overcast clouds
158,Yashkino,55.8736,85.4265,57.92,60,90,6.02,RU,light rain
159,Jamestown,42.097,-79.2353,67.59,74,100,13.8,US,moderate rain
160,Ginda,30.6945,78.4932,74.59,76,95,4.74,IN,moderate rain
161,Baturaja,-4.1333,104.1667,83.07,68,99,4.52,ID,overcast clouds
162,Bredasdorp,-34.5322,20.0403,47.68,91,78,5.19,ZA,broken clouds
163,Karratha,-20.7377,116.8463,84.56,17,0,15.23,AU,clear sky
164,Rocha,-34.4833,-54.3333,40.51,86,0,1.57,UY,clear sky
165,Arlit,18.7369,7.3853,88.97,31,1,7.99,NE,clear sky
166,Katsuura,35.1333,140.3,81.68,85,31,6.69,JP,scattered clouds
167,Shingu,33.7333,135.9833,85.17,74,42,5.79,JP,scattered clouds
168,Tiksi,71.6872,128.8694,41.07,90,100,15.52,RU,overcast clouds
169,Krasnogvardeyskiy,57.3793,62.3195,74.44,55,75,7.14,RU,broken clouds
170,Namibe,-15.1961,12.1522,63.72,87,74,6.87,AO,broken clouds
171,Khash,28.2211,61.2158,82.65,12,54,12.66,IR,broken clouds
172,Mvomero,-6.25,38.6667,71.92,77,15,4.27,TZ,few clouds
173,Port Keats,-14.25,129.55,92.53,21,7,3.29,AU,clear sky
174,Shizunai,42.3339,142.3669,75.7,73,24,9.73,JP,few clouds
175,Horni Briza,49.8401,13.3556,58.91,93,75,0.0,CZ,broken clouds
176,Kaitangata,-46.2817,169.8464,49.46,72,30,3.04,NZ,scattered clouds
177,Fukue,32.6881,128.8419,84.56,79,75,3.44,JP,broken clouds
178,Port Blair,11.6667,92.75,82.31,81,100,15.39,IN,moderate rain
179,Yellowknife,62.456,-114.3525,61.32,77,75,6.91,CA,broken clouds
180,Yatou,37.15,122.3833,76.68,93,100,15.32,CN,overcast clouds
181,Santa Cruz,-17.8,-63.1667,63.86,34,75,10.36,BO,broken clouds
182,Springfield,37.2153,-93.2982,71.19,88,100,4.63,US,overcast clouds
183,Khotyn,48.4833,26.5,70.77,59,48,3.98,UA,scattered clouds
184,East London,-33.0153,27.9116,52.74,87,0,9.22,ZA,clear sky
185,Erenhot,43.6475,111.9767,66.81,26,0,15.79,CN,clear sky
186,Mersing,2.4312,103.8405,89.51,74,40,2.3,MY,scattered clouds
187,Kuala Terengganu,5.3302,103.1408,89.55,58,20,7.0,MY,few clouds
188,Upernavik,72.7868,-56.1549,37.74,74,53,7.18,GL,broken clouds
189,Lorengau,-2.0226,147.2712,84.61,68,30,10.92,PG,scattered clouds
190,Stratford-Upon-Avon,52.1917,-1.7073,59.22,88,93,4.03,GB,overcast clouds
191,Beringovskiy,63.05,179.3167,53.58,78,94,9.71,RU,overcast clouds
192,Nome,64.5011,-165.4064,66.27,46,0,10.36,US,clear sky
193,Boralday,43.3578,76.8594,69.66,24,0,13.42,KZ,clear sky
194,Ambilobe,-13.2,49.05,76.93,41,2,8.03,MG,clear sky
195,Eregli,37.5133,34.0467,77.18,36,1,2.82,TR,clear sky
196,Tiznit,29.5833,-9.5,84.6,25,17,1.95,MA,few clouds
197,Hasaki,35.7333,140.8333,81.28,82,23,5.93,JP,few clouds
198,Grindavik,63.8424,-22.4338,48.67,87,75,6.91,IS,broken clouds
199,Koumac,-20.5667,164.2833,71.8,85,84,15.73,NC,broken clouds
200,Colquechaca,-18.6667,-66.0167,24.66,42,0,2.8,BO,clear sky
201,Loandjili,-4.7561,11.8578,71.71,88,100,0.0,CG,overcast clouds
202,Ongandjera,-17.8833,15.0667,50.47,17,8,5.01,NA,clear sky
203,Petropavl,54.8753,69.1628,58.98,72,0,4.47,KZ,clear sky
204,Hibbing,47.4272,-92.9377,56.55,70,49,2.77,US,scattered clouds
205,Vao,-22.6667,167.4833,70.25,80,85,17.69,NC,overcast clouds
206,The Valley,18.217,-63.0578,82.26,76,6,12.8,AI,clear sky
207,Sao Joao Da Barra,-21.6403,-41.0511,63.45,78,100,8.1,BR,overcast clouds
208,Sitio Novo Do Tocantins,-5.5183,-47.4611,73.33,53,20,0.0,BR,few clouds
209,Alenquer,-1.9417,-54.7383,75.4,81,61,2.01,BR,light rain
210,Antofagasta,-23.65,-70.4,54.68,84,10,4.16,CL,clear sky
211,Klaksvik,62.2266,-6.589,41.92,76,85,4.36,FO,overcast clouds
212,Santo Tomas,14.1079,121.1414,86.25,89,100,8.99,PH,heavy intensity rain
213,Ponta Do Sol,32.6667,-17.1,79.43,35,74,6.6,PT,broken clouds
214,Katobu,-4.9408,122.5276,86.72,47,66,9.57,ID,broken clouds
215,Mayo,38.8876,-76.5119,73.94,91,99,8.23,US,overcast clouds
216,Ust-Kuyga,70.0167,135.6,55.92,68,95,9.91,RU,overcast clouds
217,Araouane,18.9048,-3.5265,89.8,38,3,9.89,ML,clear sky
218,Longyearbyen,78.2186,15.6401,39.04,87,0,6.91,SJ,clear sky
219,Liberal,37.0431,-100.921,64.54,94,0,5.75,US,clear sky
220,San Policarpo,12.1791,125.5072,85.68,68,100,8.55,PH,overcast clouds
221,Shubarshi,48.5872,57.1869,71.51,36,0,15.66,KZ,clear sky
222,Manokwari,-0.8667,134.0833,83.98,65,50,8.7,ID,heavy intensity rain
223,Xining,36.6167,101.7667,61.54,85,99,3.38,CN,overcast clouds
224,Honolulu,21.3069,-157.8583,83.44,65,20,12.66,US,few clouds
225,Baracoa,20.3467,-74.4958,80.06,87,80,10.85,CU,broken clouds
226,Lovozero,68.005,35.0117,59.83,82,43,10.8,RU,scattered clouds
227,Mana,5.6592,-53.7767,76.14,91,100,6.31,GF,overcast clouds
228,Mount Isa,-20.7333,139.5,83.97,23,0,5.75,AU,clear sky
229,Port Lincoln,-34.7333,135.8667,50.61,80,96,23.73,AU,overcast clouds
230,Mareeba,-17.0,145.4333,79.45,51,3,8.39,AU,clear sky
231,Lianzhou,24.7811,112.3825,94.96,51,93,2.66,CN,overcast clouds
232,Dunedin,-45.8742,170.5036,49.8,70,66,8.99,NZ,broken clouds
233,Manaure,11.7751,-72.4445,82.24,76,57,11.34,CO,broken clouds
234,Cumberland,35.0502,-78.8664,75.87,97,100,8.05,US,overcast clouds
235,Ulaangom,49.9811,92.0667,64.56,27,4,6.89,MN,clear sky
236,Sawtell,-30.3833,153.1,72.19,63,50,20.71,AU,scattered clouds
237,Maine-Soroa,13.2114,12.0241,77.32,76,100,7.34,NE,overcast clouds
238,Sorland,67.667,12.6934,51.66,93,100,36.51,NO,overcast clouds
239,High Level,58.5169,-117.136,68.11,52,20,8.05,CA,few clouds
240,Sorata,-15.7667,-68.6333,36.5,76,36,1.59,BO,scattered clouds
241,Puerto Baquerizo Moreno,-0.9,-89.6,68.61,85,54,9.84,EC,broken clouds
242,Shakawe,-18.3667,21.85,45.66,47,27,5.41,BW,scattered clouds
243,Kachug,53.9606,105.8817,60.94,54,96,8.93,RU,overcast clouds
244,Togur,58.3631,82.8265,58.68,50,40,8.03,RU,scattered clouds
245,Talcahuano,-36.7167,-73.1167,49.68,100,4,2.3,CL,clear sky
246,Elko,41.0002,-115.5012,74.64,36,79,11.99,US,broken clouds
247,Qaqortoq,60.7167,-46.0333,40.96,72,3,2.77,GL,clear sky
248,Migori,-1.0634,34.4731,64.8,60,51,10.83,KE,broken clouds
249,Southbridge,42.0751,-72.0334,67.68,93,98,3.0,US,overcast clouds
250,Bud,39.447,-86.1758,69.91,89,0,6.17,US,clear sky
251,Anantapur,14.6833,77.6,85.12,54,70,20.27,IN,broken clouds
252,Luchegorsk,46.4764,134.2569,62.46,98,100,6.73,RU,overcast clouds
253,Itaituba,-4.2761,-55.9836,75.16,72,97,1.1,BR,overcast clouds
254,El Sauzal,31.9,-116.6833,68.41,83,10,4.92,MX,clear sky
255,Petropavlovsk-Kamchatskiy,53.0452,158.6483,63.19,94,20,15.66,RU,few clouds
256,Bambous Virieux,-20.3428,57.7575,74.21,73,75,12.66,MU,broken clouds
257,Sharjah,25.3573,55.4033,96.78,52,0,5.75,AE,clear sky
258,Blois,47.5833,1.3333,62.98,83,87,3.22,FR,overcast clouds
259,Visby,57.6409,18.296,64.62,77,0,10.36,SE,clear sky
260,Kokopo,-4.352,152.2633,83.82,65,51,7.61,PG,broken clouds
261,Seoul,37.5683,126.9778,88.99,64,75,8.05,KR,broken clouds
262,Uyuni,-20.4597,-66.825,37.29,15,0,5.48,BO,clear sky
263,Nyurba,63.2842,118.3319,55.36,58,94,5.17,RU,overcast clouds
264,Celestun,20.8667,-90.4,79.07,83,30,8.46,MX,scattered clouds
265,Torata,-17.0769,-70.8433,51.28,27,10,2.17,PE,clear sky
266,Goes,51.5042,3.8889,64.04,86,79,6.62,NL,broken clouds
267,Morro Bay,35.3658,-120.8499,64.2,87,25,3.0,US,scattered clouds
268,Presque Isle,46.6811,-68.0159,66.51,75,97,5.64,US,overcast clouds
269,Ambon,-3.6954,128.1814,77.14,88,40,6.91,ID,moderate rain
270,Clifton,40.8584,-74.1638,75.42,83,75,5.75,US,broken clouds
271,Nacala,-14.5428,40.6728,74.62,73,36,12.5,MZ,scattered clouds
272,Shagamu,6.8432,3.6478,74.98,96,95,1.92,NG,overcast clouds
273,Berlevag,70.8578,29.0864,66.15,72,75,21.85,NO,broken clouds
274,Port Hardy,50.6996,-127.4199,60.98,88,100,2.3,CA,overcast clouds
275,Porecatu,-22.7558,-51.3792,57.72,85,6,10.65,BR,clear sky
276,Fort William,56.8165,-5.1121,50.31,95,100,3.24,GB,overcast clouds
277,Salalah,17.0151,54.0924,74.71,97,100,5.19,OM,overcast clouds
278,Luena,-11.7833,19.9167,53.76,31,8,5.91,AO,clear sky
279,Fairbanks,64.8378,-147.7164,68.22,70,100,3.44,US,overcast clouds
280,Batemans Bay,-35.7167,150.1833,65.73,46,71,12.93,AU,broken clouds
281,Acajutla,13.5928,-89.8275,79.18,86,41,6.31,SV,moderate rain
282,Mosquera,4.7059,-74.2302,53.69,82,75,2.3,CO,broken clouds
283,Karwar,14.8,74.1333,79.14,84,100,12.95,IN,overcast clouds
284,Riosucio,5.4216,-75.7032,57.87,99,100,0.11,CO,overcast clouds
285,Lerwick,60.1545,-1.1494,48.2,81,56,3.13,GB,broken clouds
286,Khandbari,27.3747,87.2039,83.43,69,17,4.72,NP,few clouds
287,Bengkulu,-3.8004,102.2655,84.02,64,99,7.2,ID,overcast clouds
288,Souillac,-20.5167,57.5167,71.98,73,75,12.66,MU,broken clouds
289,Broome,42.2506,-75.833,68.97,93,100,1.99,US,overcast clouds
290,Villa Del Rosario,7.8339,-72.4742,73.78,88,75,6.91,CO,drizzle
291,Qaanaaq,77.484,-69.3632,30.7,64,85,7.16,GL,overcast clouds
292,Chumphon,10.3333,98.8333,79.97,83,100,8.19,TH,light rain
293,Pangnirtung,66.1451,-65.7125,48.79,98,100,5.1,CA,moderate rain
294,Wanning,18.8003,110.3967,87.64,71,64,8.39,CN,broken clouds
295,Borovskoy,53.8,64.15,64.69,42,20,8.21,KZ,few clouds
296,Gouyave,12.1646,-61.7296,79.92,76,100,9.37,GD,overcast clouds
297,Koslan,63.4564,48.8989,67.55,51,97,4.7,RU,overcast clouds
298,Baykit,61.67,96.37,41.63,98,100,3.83,RU,light rain
299,Along,28.1667,94.7667,93.24,54,47,2.13,IN,scattered clouds
300,Alofi,-19.0595,-169.9187,76.89,69,40,5.75,NU,scattered clouds
301,Nawa,27.0167,75.0,77.77,85,100,10.02,IN,light rain
302,Muravlenko,63.7898,74.523,54.37,73,100,7.61,RU,overcast clouds
303,Ilesha,7.1371,5.2583,69.64,97,100,2.75,NG,overcast clouds
304,Rio Gallegos,-51.6226,-69.2181,39.25,81,100,11.5,AR,overcast clouds
305,Luanda,-8.8368,13.2343,68.07,94,49,6.22,AO,scattered clouds
306,Clyde River,70.4692,-68.5914,35.83,100,100,10.36,CA,light rain
307,Chilca,-12.5211,-76.7372,59.95,87,95,7.16,PE,overcast clouds
308,Iqaluit,63.7506,-68.5145,44.33,93,100,4.61,CA,light rain
309,Caraguatay,-26.6059,-54.7809,52.97,98,4,1.43,AR,clear sky
310,Bethel,41.3712,-73.414,73.49,85,75,0.0,US,broken clouds
311,Cayenne,4.9333,-52.3333,73.44,94,100,2.3,GF,moderate rain
312,Aripuana,-9.1667,-60.6333,72.7,47,74,2.13,BR,broken clouds
313,Astoria,46.1879,-123.8313,63.59,90,91,1.01,US,overcast clouds
314,Idukki,9.85,76.9667,71.24,94,98,4.07,IN,overcast clouds
315,Cidreira,-30.1811,-50.2056,53.38,91,3,2.91,BR,clear sky
316,Marsala,37.7966,12.4352,74.93,65,8,4.0,IT,clear sky
317,Hobyo,5.3505,48.5268,78.24,75,78,22.55,SO,broken clouds
318,Aleksandrovskoye,44.7142,43.0008,73.42,46,6,21.97,RU,clear sky
319,Nelson Bay,-32.7167,152.15,72.09,44,59,3.0,AU,broken clouds
320,La Ronge,55.1001,-105.2842,61.05,82,40,6.91,CA,smoke
321,Hovd,48.0056,91.6419,60.8,25,4,6.02,MN,clear sky
322,Hami,42.8,93.45,83.8,13,100,1.99,CN,overcast clouds
323,Poum,-20.2333,164.0167,73.35,83,66,15.26,NC,broken clouds
324,Bartica,6.4,-58.6167,75.52,99,100,3.18,GY,overcast clouds
325,Luderitz,-26.6481,15.1594,58.73,52,20,8.12,NA,few clouds
326,Stonewall,50.1344,-97.3268,71.71,54,43,5.53,CA,scattered clouds
327,Labuhan,-6.8844,112.2051,87.13,53,94,6.76,ID,overcast clouds
328,Kyabe,9.4515,18.9449,69.08,94,98,3.76,TD,overcast clouds
329,Terme,41.2092,36.9739,77.22,68,19,1.32,TR,few clouds
330,Coahuayana,18.7333,-103.6833,78.42,82,100,1.68,MX,overcast clouds
331,Kibre Mengist,5.8833,38.9833,56.93,91,100,1.9,ET,overcast clouds
332,Moron,-34.6534,-58.6198,52.97,93,100,4.29,AR,overcast clouds
333,North Bend,43.4065,-124.2243,61.92,97,72,1.48,US,broken clouds
334,Warrnambool,-38.3833,142.4833,50.61,78,100,10.6,AU,light rain
335,Husavik,66.0449,-17.3389,39.61,78,12,1.19,IS,few clouds
336,Pakruojis,55.9667,23.8667,66.99,82,100,2.51,LT,overcast clouds
337,Coihaique,-45.5752,-72.0662,47.01,81,0,6.91,CL,clear sky
338,Belaya Gora,68.5333,146.4167,67.55,50,100,10.49,RU,overcast clouds
339,Porto Walter,-8.2686,-72.7439,63.99,61,50,1.83,BR,scattered clouds
340,Blagoyevo,63.3667,47.9167,66.42,54,95,5.12,RU,overcast clouds
341,Kamina,-8.7386,24.9906,67.71,40,64,7.09,CD,broken clouds
342,Starokozache,46.3372,29.9853,75.67,71,17,9.35,UA,few clouds
343,Cockburn Town,21.4612,-71.1419,83.03,75,0,19.08,TC,clear sky
344,Kerema,-7.9631,145.7785,80.64,77,21,8.95,PG,few clouds
345,Chokwe,-24.5333,32.9833,56.73,69,0,1.57,MZ,clear sky
346,Saint-Ambroise,48.5501,-71.3324,66.74,94,100,2.3,CA,overcast clouds
347,Tutin,42.9903,20.3314,56.17,94,15,1.5,RS,few clouds
348,Pevek,69.7008,170.3133,53.26,63,93,19.51,RU,overcast clouds
349,Anahuac,27.2333,-100.15,85.57,61,32,21.92,MX,scattered clouds
350,Sandpoint,48.2766,-116.5533,73.45,64,0,1.01,US,clear sky
351,Nanakuli,21.3906,-158.1547,81.99,71,5,14.61,US,clear sky
352,Zhigansk,66.7697,123.3711,43.16,89,100,5.23,RU,overcast clouds
353,Belyy Yar,53.6039,91.3903,57.85,82,40,4.47,RU,light intensity shower rain
354,Isangel,-19.55,169.2667,76.51,72,20,13.11,VU,few clouds
355,Feodosiya,45.0333,35.3833,78.1,64,0,5.66,UA,clear sky
356,Amarante,-6.2411,-42.8547,68.79,67,98,5.39,BR,overcast clouds
357,Puerto Escondido,15.85,-97.0667,79.48,83,23,4.61,MX,few clouds
358,Chachapoyas,-6.2317,-77.869,47.52,97,89,3.96,PE,overcast clouds
359,Abrego,8.0807,-73.2205,62.01,91,100,3.8,CO,overcast clouds
360,Sobolevo,54.4299,31.8996,62.02,61,77,7.67,RU,broken clouds
361,Lagoa,39.05,-27.9833,72.0,81,68,10.0,PT,broken clouds
362,Poronaysk,49.2167,143.1167,72.7,54,24,13.0,RU,few clouds
363,Kiruna,67.8557,20.2251,56.32,88,75,9.22,SE,broken clouds
364,Kabanjahe,3.1001,98.4908,74.1,62,100,1.61,ID,overcast clouds
365,Lakes Entrance,-37.8811,147.981,67.15,48,27,13.82,AU,scattered clouds
366,Talara,-4.5772,-81.2719,62.6,90,31,12.75,PE,scattered clouds
367,Chitungwiza,-18.0127,31.0756,48.45,84,2,6.67,ZW,clear sky
368,Adrar,20.5022,-10.0711,90.57,33,83,7.94,MR,broken clouds
369,Ixtapa,20.7,-105.2,75.67,92,91,3.0,MX,overcast clouds
370,Mehamn,71.0357,27.8492,66.11,82,0,21.85,NO,clear sky
371,Harper,4.375,-7.7169,75.16,86,100,8.05,LR,overcast clouds
372,Moroto,2.5345,34.6666,67.84,72,99,4.38,UG,overcast clouds
373,Kavieng,-2.5744,150.7967,84.09,69,27,10.92,PG,scattered clouds
374,Deputatskiy,69.3,139.9,58.46,61,100,1.9,RU,overcast clouds
375,Bodden Town,19.2833,-81.25,83.93,88,65,13.18,KY,broken clouds
376,Castanos,26.7833,-101.4167,80.35,68,55,1.59,MX,broken clouds
377,Were Ilu,10.6,39.4333,54.45,77,40,0.63,ET,scattered clouds
378,Yar-Sale,66.8333,70.8333,58.69,80,100,9.44,RU,overcast clouds
379,Andijon,40.7821,72.3442,78.08,9,15,2.17,UZ,few clouds
380,Baoshan,46.5586,131.4244,60.93,98,100,9.91,CN,light rain
381,Hualmay,-11.0964,-77.6139,60.76,84,50,7.76,PE,scattered clouds
382,Ahipara,-35.1667,173.1667,57.69,71,12,13.0,NZ,few clouds
383,Kununurra,-15.7667,128.7333,87.78,11,10,8.05,AU,clear sky
384,Kaeo,-35.1,173.7833,61.32,71,1,10.56,NZ,clear sky
385,Ciudad Bolivar,8.1222,-63.5497,72.66,95,100,3.89,VE,overcast clouds
386,Juba,4.8517,31.5825,72.91,81,90,2.04,SS,overcast clouds
387,Bestobe,52.4994,73.0975,60.75,52,74,10.78,KZ,broken clouds
388,Lata,40.1629,-8.3327,63.81,96,76,3.29,PT,broken clouds
389,Jadu,31.953,12.0261,66.9,60,0,3.27,LY,clear sky
390,Pearl,32.2746,-90.132,75.24,92,100,5.46,US,overcast clouds
391,Opuwo,-18.0607,13.84,54.14,15,23,5.46,NA,few clouds
392,Porosozero,62.7191,32.727,60.62,70,97,7.0,RU,overcast clouds
393,Olafsvik,64.8945,-23.7142,46.24,62,94,10.98,IS,overcast clouds
394,Beloha,-25.1667,45.05,64.49,57,1,10.25,MG,clear sky
395,Yangjiang,21.85,111.9667,87.51,73,92,7.78,CN,overcast clouds
396,Carnarvon,-24.8667,113.6333,78.01,35,0,9.66,AU,clear sky
397,Santa Ines,-3.6667,-45.38,69.49,65,94,3.06,BR,overcast clouds
398,Panalingaan,8.7842,117.4231,84.04,76,96,5.97,PH,overcast clouds
399,Tessalit,20.1986,1.0114,85.91,42,6,7.52,ML,clear sky
400,Tazovskiy,67.4667,78.7,51.33,71,100,6.78,RU,overcast clouds
401,Klin,56.3333,36.7333,65.23,45,98,6.78,RU,overcast clouds
402,Tsabong,-26.0217,22.401,48.29,25,0,10.4,BW,clear sky
403,Miguel Calmon,-11.4289,-40.595,61.27,93,94,6.58,BR,overcast clouds
404,Floresta,-8.6011,-38.5686,66.76,87,79,12.19,BR,broken clouds
405,Axim,4.8699,-2.2405,74.93,85,96,5.95,GH,overcast clouds
406,Kamennogorsk,60.9545,29.1339,62.29,59,30,8.08,RU,scattered clouds
407,Tabou,4.423,-7.3528,74.73,88,100,7.18,CI,light rain
408,Te Anau,-45.4167,167.7167,47.39,85,81,2.8,NZ,broken clouds
409,Turayf,31.6725,38.6637,78.55,36,0,9.04,SA,clear sky
410,Choa Saidan Shah,32.7201,72.9849,87.76,43,2,0.81,PK,clear sky
411,Muncar,-8.4333,114.3333,80.82,74,91,11.99,ID,overcast clouds
412,Calabozo,8.9242,-67.4293,71.44,95,78,3.94,VE,broken clouds
413,Chimbote,-9.0853,-78.5783,61.16,86,99,7.0,PE,overcast clouds
414,Tabas,33.5959,56.9244,83.66,14,0,2.66,IR,clear sky
415,Alamos,27.0167,-108.9333,74.7,90,72,2.17,MX,broken clouds
416,Komsomolskiy,40.4272,71.7189,75.92,22,30,6.91,UZ,scattered clouds
417,Vostok,46.4856,135.8833,59.97,96,100,2.33,RU,overcast clouds
418,Santa Vitoria Do Palmar,-33.5189,-53.3681,46.87,89,23,5.14,BR,few clouds
419,Garden City,42.3256,-83.331,67.14,94,16,5.39,US,few clouds
420,Winnemucca,40.973,-117.7357,80.65,16,0,3.44,US,clear sky
421,Ilebo,-4.3167,20.5833,72.34,90,97,2.42,CD,light rain
422,Hede,33.7681,120.2517,97.59,52,100,10.0,CN,overcast clouds
423,Margate,51.3813,1.3862,58.3,90,67,5.01,GB,broken clouds
424,Miraflores,19.2167,-98.8083,61.03,87,27,3.67,MX,scattered clouds
425,Ulladulla,-35.35,150.4667,67.1,49,64,12.06,AU,broken clouds
426,Armidale,-30.5167,151.65,56.12,51,54,12.08,AU,broken clouds
427,Gazimurskiy Zavod,51.5461,118.3266,61.59,43,40,11.1,RU,scattered clouds
428,Bandraboua,-12.7044,45.1223,74.88,74,13,6.15,YT,few clouds
429,Pitimbu,-7.4706,-34.8086,73.11,86,72,11.7,BR,broken clouds
430,Acarau,-2.8856,-40.12,76.44,83,85,16.33,BR,overcast clouds
431,Srednekolymsk,67.45,153.6833,67.96,57,99,7.05,RU,overcast clouds
432,Vila Do Maio,15.1333,-23.2167,80.31,82,99,6.42,CV,overcast clouds
433,Simpang,-1.2667,104.0833,82.54,70,100,4.59,ID,overcast clouds
434,Fortuna,40.5982,-124.1573,59.67,90,4,3.4,US,clear sky
435,Sao Filipe,14.8961,-24.4956,78.58,82,100,6.17,CV,light rain
436,Valkeakoski,61.2642,24.0312,58.42,89,100,5.06,FI,overcast clouds
437,Galle,6.0367,80.217,81.32,84,82,15.1,LK,broken clouds
438,Bonfim,3.0833,-59.95,75.06,86,100,4.41,BR,overcast clouds
439,Jammalamadugu,14.8333,78.4,89.2,48,76,18.37,IN,broken clouds
440,Harlingen,26.1906,-97.6961,83.05,94,100,10.38,US,overcast clouds
441,Harmanli,41.9333,25.9,68.85,86,21,4.68,BG,few clouds
442,La Rioja,42.25,-2.5,60.58,88,6,3.27,ES,clear sky
443,Havoysund,70.9963,24.6622,61.03,82,94,16.11,NO,overcast clouds
444,Vila Franca Do Campo,37.7167,-25.4333,70.21,87,36,4.12,PT,scattered clouds
445,Suileng,47.25,127.0833,57.69,94,100,16.44,CN,overcast clouds
446,Ormara,25.2088,64.6357,81.77,81,74,8.75,PK,broken clouds
447,Faridkot,30.6667,74.75,91.45,56,15,5.55,IN,few clouds
448,Almeirim,-1.5233,-52.5817,74.25,85,71,2.46,BR,broken clouds
449,Kaputa,-8.4689,29.6619,71.62,53,15,12.41,ZM,few clouds
450,Samarai,-10.6167,150.6667,77.45,90,100,15.79,PG,overcast clouds
451,Hayden,47.766,-116.7866,73.18,47,35,1.01,US,scattered clouds
452,Biertan,46.1333,24.5167,65.14,87,94,1.21,RO,overcast clouds
453,Aklavik,68.2191,-135.0107,41.41,88,100,7.94,CA,overcast clouds
454,Umm Kaddadah,13.6017,26.6876,78.82,68,71,12.01,SD,broken clouds
455,Pangody,65.85,74.4859,60.22,70,100,9.1,RU,overcast clouds
456,Kirakira,-10.4544,161.9205,83.23,67,27,13.62,SB,scattered clouds
457,Kielce,50.8703,20.6275,68.02,1,100,5.32,PL,overcast clouds
458,Vadso,70.0744,29.7487,61.68,77,20,10.36,NO,few clouds
459,Takoradi,4.8845,-1.7554,73.49,89,74,4.47,GH,broken clouds
460,Mahuva,21.0914,71.7622,82.63,78,100,14.07,IN,overcast clouds
461,Pisco,-13.7,-76.2167,56.01,84,3,2.1,PE,clear sky
462,Kenai,60.5544,-151.2583,58.14,90,100,8.72,US,overcast clouds
463,Le Port,-20.9373,55.2919,74.25,59,11,7.09,RE,few clouds
464,Necochea,-38.5473,-58.7368,46.38,79,89,5.55,AR,overcast clouds
465,Ambulu,-8.345,113.6058,83.71,66,96,10.42,ID,overcast clouds
466,Buriti,-22.9302,-45.3881,50.52,96,21,2.13,BR,few clouds
467,Solnechnyy,50.7214,136.6319,67.64,63,48,6.06,RU,scattered clouds
468,Talnakh,69.4865,88.3972,51.21,58,77,6.26,RU,broken clouds
469,Ostrovnoy,68.0531,39.5131,62.08,78,53,22.1,RU,broken clouds
470,General Pico,-35.6566,-63.7568,44.92,57,31,8.32,AR,scattered clouds
471,Oranjemund,-28.55,16.4333,55.15,68,40,9.62,NA,scattered clouds
472,Mitu,1.1983,-70.1733,68.67,93,93,2.19,CO,overcast clouds
473,Sioux Lookout,50.1001,-91.917,63.16,71,52,4.52,CA,broken clouds
474,Kudahuvadhoo,2.6708,72.8944,82.6,71,42,15.77,MV,scattered clouds
475,Muscat,23.6139,58.5922,88.93,64,85,1.77,OM,overcast clouds
476,Selcuk,37.9514,27.3685,76.01,55,0,1.9,TR,clear sky
477,Leon,21.1167,-101.6667,64.45,74,74,1.7,MX,moderate rain
478,Huntsville,34.7304,-86.5861,75.2,96,40,4.0,US,scattered clouds
479,Rapid Valley,44.0625,-103.1463,77.63,48,0,5.99,US,clear sky
480,Bonthe,7.5264,-12.505,74.8,91,35,4.65,SL,light rain
481,Saldanha,-33.0117,17.9442,53.44,88,75,11.83,ZA,broken clouds
482,Erzin,36.9559,36.2,79.14,82,74,4.25,TR,broken clouds
483,Ocampo,21.65,-101.5,59.38,82,85,8.66,MX,overcast clouds
484,Alyangula,-13.8483,136.4192,79.52,52,0,9.6,AU,clear sky
485,Kendari,-3.945,122.4989,81.64,76,69,4.61,ID,broken clouds
486,Fomboni,-12.28,43.7425,76.19,77,63,12.19,KM,light rain
487,Jesi,43.5288,13.2402,74.14,59,12,4.61,IT,few clouds
488,Pak Chong,14.708,101.4161,79.77,80,100,4.9,TH,overcast clouds
489,Meulaboh,4.1363,96.1285,83.71,67,100,6.53,ID,light rain
490,Anchorage,61.2181,-149.9003,62.38,84,100,3.62,US,overcast clouds
491,Parkersburg,39.2667,-81.5615,68.58,98,100,9.22,US,heavy intensity rain
492,Shellbrook,53.2168,-106.4011,59.16,90,30,8.3,CA,scattered clouds
493,Sambava,-14.2667,50.1667,70.25,77,50,10.29,MG,light rain
494,Viedma,-40.8135,-62.9967,39.92,91,0,11.56,AR,clear sky
495,Sandnessjoen,66.0217,12.6316,51.91,93,75,12.66,NO,shower rain
496,Oranjestad,12.524,-70.027,82.29,84,22,21.97,AW,few clouds
497,Kangaatsiaq,68.3065,-53.4641,41.23,75,100,5.88,GL,overcast clouds
498,Bumba,2.1833,22.4667,70.38,95,66,2.06,CD,broken clouds
499,Iracoubo,5.4802,-53.2011,75.79,90,100,7.29,GF,overcast clouds
500,Deniliquin,-35.5333,144.9667,62.29,46,82,15.23,AU,broken clouds
501,Quelimane,-17.8786,36.8883,71.55,68,40,6.91,MZ,scattered clouds
502,Dakar,14.6937,-17.4441,79.68,80,100,9.33,SN,light rain
503,Codrington,-38.2667,141.9667,50.56,79,100,10.07,AU,light rain
504,Cavalcante,-13.7975,-47.4583,61.88,65,14,5.12,BR,few clouds
505,Mabaruma,8.2,-59.7833,72.18,99,97,1.48,GY,overcast clouds
506,Santa Rosa,14.3122,121.1114,86.11,73,100,11.54,PH,heavy intensity rain
507,Inta,66.0317,60.1659,69.3,55,7,9.24,RU,clear sky
508,Jutai,-5.1833,-68.9,68.65,76,65,0.81,BR,broken clouds
509,Yamada,39.4667,141.95,79.16,76,38,8.08,JP,scattered clouds
510,Nsanje,-16.92,35.262,66.78,70,45,5.88,MW,scattered clouds
511,Paamiut,61.994,-49.6678,41.88,68,49,4.54,GL,scattered clouds
512,Stanislav,46.5691,32.1478,76.82,57,0,13.38,UA,clear sky
513,Manhumirim,-20.3578,-41.9581,48.22,94,5,3.13,BR,clear sky
514,Merta,26.65,74.0333,78.3,84,100,5.37,IN,overcast clouds
515,Lipari,38.4674,14.954,73.33,65,48,7.65,IT,scattered clouds
516,Port Hedland,-20.3167,118.5667,87.85,13,0,10.36,AU,clear sky
517,Rudsar,37.1376,50.288,80.69,64,33,6.26,IR,scattered clouds
518,Ankang,32.68,109.0172,105.35,31,99,1.05,CN,overcast clouds
519,Luganville,-15.5333,167.1667,79.45,75,48,11.83,VU,scattered clouds
520,Junagarh,19.8667,82.9333,85.33,68,68,11.12,IN,broken clouds
521,Kamaishi,39.2667,141.8833,79.18,76,36,7.18,JP,scattered clouds
522,Vatne,62.5667,6.65,52.59,77,85,14.34,NO,overcast clouds
523,Tarnos,43.5417,-1.4628,70.56,88,100,4.61,FR,overcast clouds
524,Shahr-E Babak,30.1165,55.1186,76.32,12,0,7.14,IR,clear sky
525,Pajan,-1.5667,-80.4167,68.56,89,99,2.51,EC,overcast clouds
526,Manicore,-5.8092,-61.3003,71.55,58,68,2.1,BR,broken clouds
527,Saint-Marc-Des-Carrieres,46.6834,-72.0491,67.21,98,98,1.97,CA,overcast clouds
528,Aswan,24.0934,32.907,92.48,17,1,5.97,EG,clear sky
529,Derzhavinsk,51.1,66.3167,63.01,56,95,13.47,KZ,overcast clouds
530,Bagdarin,54.4333,113.6,57.92,47,58,4.25,RU,broken clouds
531,Brae,60.3964,-1.353,49.8,80,53,4.54,GB,broken clouds
532,Palmer,42.1584,-72.3287,69.4,83,100,0.0,US,overcast clouds
533,Floro,61.5996,5.0328,53.56,76,40,17.27,NO,scattered clouds
534,Polunochnoye,60.8697,60.4153,73.45,45,0,4.41,RU,clear sky
535,Dijkot,31.2167,72.9833,94.77,44,23,2.33,PK,few clouds
536,Lebu,-37.6167,-73.65,49.73,94,62,9.31,CL,broken clouds
537,Elizabeth City,36.2946,-76.2511,73.42,97,0,5.75,US,clear sky
538,Nuevo Progreso,23.1667,-97.95,81.54,68,10,4.18,MX,clear sky
539,Benjamin Hill,30.1667,-111.1,74.21,78,31,1.36,MX,scattered clouds
540,Victor Harbor,-35.5667,138.6167,51.67,92,92,12.66,AU,moderate rain
541,Saint-Gabriel,46.3001,-73.3824,66.92,99,97,0.92,CA,overcast clouds
542,Yanam,16.7333,82.2167,91.51,54,66,9.98,IN,broken clouds
543,Yulara,-25.2406,130.9889,76.77,15,0,8.72,AU,clear sky
544,Shima,24.4478,117.8111,99.5,39,80,3.85,CN,broken clouds
545,Trairi,-3.2778,-39.2689,76.86,81,80,12.88,BR,broken clouds
546,Mogadishu,2.0371,45.3438,77.16,79,100,18.07,SO,overcast clouds
547,Saint-Francois,46.4154,3.9054,60.24,88,0,1.14,FR,clear sky
548,Taitung,22.7583,121.1444,91.67,66,40,5.75,TW,scattered clouds
549,Mezen,65.8522,44.24,66.43,55,91,9.4,RU,overcast clouds
550,Oktyabrskiy,54.4815,53.471,75.38,56,7,4.9,RU,clear sky
551,Neustadt,49.7117,12.0872,54.14,90,32,2.57,DE,scattered clouds
552,Manzanillo,20.3433,-77.1167,77.18,88,11,9.91,CU,few clouds
553,Zabid,14.1951,43.3152,88.48,57,31,5.41,YE,scattered clouds
554,Bosaso,11.2842,49.1816,89.89,43,68,27.25,SO,broken clouds
555,Fairhope,30.523,-87.9033,75.67,81,0,3.0,US,clear sky
556,Melfi,40.9965,15.6514,65.28,60,24,4.05,IT,few clouds
557,Arnprior,45.4334,-76.3494,69.15,97,100,2.13,CA,overcast clouds
558,Labytnangi,66.6572,66.4183,71.74,64,56,9.53,RU,broken clouds
559,Jabinyanah,35.035,10.9081,77.27,57,74,2.86,TN,broken clouds
560,Atar,20.5169,-13.0499,88.45,44,84,0.51,MR,broken clouds
561,Veseloyarsk,51.2836,81.1056,69.46,34,97,7.83,RU,overcast clouds
562,Artyom,40.4723,50.333,82.54,48,0,16.58,AZ,clear sky
563,Yankton,42.8711,-97.3973,64.94,65,0,7.74,US,clear sky
564,Rupert,42.6191,-113.6772,73.35,49,0,4.61,US,clear sky
565,Vallenar,-28.5708,-70.7581,55.72,79,0,1.16,CL,clear sky
566,Pitkyaranta,61.5734,31.4792,63.16,68,82,13.58,RU,broken clouds
567,Micheweni,-4.9667,39.8333,75.54,75,11,11.12,TZ,few clouds
568,Polovinnoye,54.7914,65.9864,59.81,53,81,4.92,RU,broken clouds
569,Gravdal,68.1214,13.5031,55.29,100,75,3.44,NO,broken clouds
570,Kholm,59.2667,32.85,64.44,51,95,7.05,RU,overcast clouds
571,Mountain Home,43.133,-115.6912,80.62,25,1,8.75,US,clear sky
572,Kloulklubed,7.0419,134.2556,84.2,71,30,10.22,PW,scattered clouds
573,Shimoda,34.6667,138.95,79.11,74,38,9.91,JP,scattered clouds
574,Pathein,16.7833,94.7333,77.61,91,100,12.55,MM,light rain
575,Smithers,54.7804,-127.1743,67.37,63,9,3.15,CA,clear sky
576,Ternate,0.8,127.4,84.16,70,50,5.01,ID,scattered clouds
577,Chivilcoy,-34.8957,-60.0167,45.9,65,100,6.73,AR,overcast clouds
578,Tefe,-3.3542,-64.7114,72.79,78,70,1.07,BR,broken clouds
579,Nokha,27.6,73.4167,86.63,57,78,0.78,IN,broken clouds
580,Lompoc,34.6391,-120.4579,64.02,92,100,5.75,US,overcast clouds
581,Khetri,27.9833,75.8,86.92,59,95,5.66,IN,overcast clouds
582,Piacabucu,-10.4056,-36.4344,71.26,87,97,7.67,BR,overcast clouds
583,Mandalgovi,45.7625,106.2708,59.13,33,19,7.11,MN,few clouds
584,Madras,13.0878,80.2785,89.58,73,40,13.8,IN,scattered clouds
585,Souris,49.6172,-100.2612,72.07,54,99,7.7,CA,overcast clouds
586,Hollins,37.3413,-79.9431,71.44,96,75,5.75,US,broken clouds
587,Emet,39.343,29.2585,73.58,62,33,1.81,TR,scattered clouds
588,Amga,60.8953,131.9608,61.81,44,95,13.02,RU,overcast clouds
589,Helong,42.5397,128.9972,63.7,92,100,6.02,CN,overcast clouds
590,General Roca,-39.0333,-67.5833,45.63,69,0,9.73,AR,clear sky
591,San Miguel,13.4833,-88.1833,73.81,97,66,1.25,SV,broken clouds
592,Manggar,-2.8833,108.2667,82.09,75,100,11.92,ID,overcast clouds
593,Asfi,32.2994,-9.2372,70.72,81,0,13.56,MA,clear sky
594,Roald,62.5833,6.1333,56.91,87,40,23.02,NO,scattered clouds
595,Torbay,47.6666,-52.7314,57.58,93,4,5.01,CA,clear sky
596,Tandil,-37.3217,-59.1332,40.68,95,0,4.12,AR,clear sky
597,Yavas,54.4159,42.8491,72.28,49,90,7.63,RU,overcast clouds
598,Moose Factory,51.2585,-80.6094,58.64,80,3,7.09,CA,clear sky
599,Orange Cove,36.6244,-119.3137,88.29,32,0,8.05,US,clear sky
600,Atchison,39.563,-95.1216,72.19,86,4,4.32,US,clear sky
601,Pushkino,56.0172,37.8667,70.09,42,100,8.03,RU,overcast clouds
602,Butzow,53.85,11.9833,66.15,76,21,4.05,DE,few clouds
603,Kahului,20.8947,-156.47,80.62,73,20,17.27,US,few clouds
604,Priiskovyy,51.9333,116.6333,58.59,55,79,10.87,RU,broken clouds
605,Saint-Joseph,-21.3667,55.6167,71.98,63,34,10.71,RE,scattered clouds
606,Gamba,-2.65,10.0,72.1,91,100,7.02,GA,overcast clouds
607,Darhan,49.4867,105.9228,61.5,50,13,2.68,MN,few clouds
608,Rogovatoye,51.23,38.3818,71.8,38,86,15.48,RU,overcast clouds
609,Xai-Xai,-25.0519,33.6442,58.84,67,0,3.38,MZ,clear sky
610,Tuatapere,-46.1333,167.6833,49.78,71,24,1.74,NZ,few clouds
611,Kambove,-10.8764,26.5969,62.73,58,34,9.55,CD,scattered clouds
612,Monterey,36.2505,-121.2516,68.18,1,0,6.46,US,clear sky
613,Tuburan,6.6439,122.2736,87.89,70,82,8.68,PH,broken clouds
614,Miramar,25.9873,-80.2323,86.02,79,40,10.36,US,scattered clouds
615,Lowestoft,52.4752,1.7516,57.45,83,1,9.13,GB,clear sky
616,Strezhevoy,60.7333,77.5889,57.02,49,91,6.15,RU,overcast clouds
617,Pangai,-19.8,-174.35,74.71,76,14,12.59,TO,few clouds
618,Mahajanga,-15.7167,46.3167,72.84,53,0,17.54,MG,clear sky
619,Jaguaribe,-5.8906,-38.6219,73.63,68,78,5.06,BR,broken clouds
620,Port Hawkesbury,45.6169,-61.3485,64.87,94,95,5.99,CA,overcast clouds
621,North Platte,41.1239,-100.7654,71.11,72,0,8.99,US,clear sky
622,Nemuro,43.3236,145.575,68.97,80,1,3.62,JP,clear sky
623,Nador,35.174,-2.9287,86.25,23,0,6.91,MA,clear sky
624,Birjand,32.8663,59.2211,71.35,13,0,9.8,IR,clear sky
625,Blacksburg,37.2296,-80.4139,67.62,94,100,0.0,US,overcast clouds
626,Gull Lake,50.1001,-108.4847,74.8,30,77,3.56,CA,broken clouds
627,Kaoma,-14.7833,24.8,60.04,60,44,8.81,ZM,scattered clouds
628,Srandakan,-7.9386,110.2506,82.18,72,100,14.52,ID,overcast clouds
629,Weleri,-6.9713,110.0666,89.49,57,100,7.29,ID,overcast clouds
630,Ovruch,51.3246,28.8035,67.03,72,2,5.06,UA,clear sky
631,Pitiquito,30.7,-112.0833,85.1,60,34,1.48,MX,scattered clouds
632,Balikpapan,-1.2675,116.8289,83.39,84,20,9.22,ID,few clouds
633,Katherine,-14.4667,132.2667,89.92,17,12,10.36,AU,few clouds
634,Avanigadda,16.0215,80.9181,91.22,51,62,12.62,IN,broken clouds
635,Chanthaburi,12.8333,102.1667,79.5,77,100,5.97,TH,heavy intensity rain
636,Plastun,44.7561,136.2939,71.76,60,100,2.86,RU,overcast clouds
637,Bitung,1.4451,125.1824,90.45,72,80,14.94,ID,broken clouds
638,Bourail,-21.5667,165.4833,68.77,86,100,10.96,NC,overcast clouds
639,Emba,48.8264,58.1442,69.93,45,0,16.26,KZ,clear sky
640,Kyshtovka,56.555,76.6271,57.67,62,11,5.41,RU,few clouds
641,Aksu,41.1231,80.2644,78.53,32,23,8.84,CN,few clouds
642,Port Augusta,-32.5,137.7667,73.44,26,44,24.67,AU,scattered clouds
643,Enterprise,36.0252,-115.2419,91.29,33,40,5.75,US,scattered clouds
644,Campos Belos,-13.0367,-46.7717,67.15,56,91,8.25,BR,overcast clouds
645,Krasnaya Zarya,52.7825,37.6806,67.62,46,100,12.5,RU,overcast clouds
646,Rio Grande,-32.035,-52.0986,51.85,90,49,3.42,BR,scattered clouds
647,Ponta Delgada,37.7333,-25.6667,70.52,73,75,3.44,PT,broken clouds
648,Kieta,-6.2167,155.6333,82.58,72,11,5.12,PG,light rain
649,Olinda,-8.0089,-34.8553,71.33,88,75,5.75,BR,broken clouds
650,Doha,25.2867,51.5333,94.98,71,0,3.44,QA,clear sky
651,Kyzyl-Suu,42.3414,78.0056,58.66,48,36,7.07,KG,scattered clouds
652,Teguldet,57.3064,88.1667,57.88,65,95,5.39,RU,light rain
653,Gazojak,41.1875,61.4036,76.35,17,0,18.28,TM,clear sky
654,Baruun-Urt,46.6806,113.2792,62.8,35,6,15.05,MN,clear sky
655,Havelock,34.8791,-76.9013,82.38,91,99,4.14,US,overcast clouds
656,Yumen,40.2833,97.2,67.8,28,99,21.16,CN,overcast clouds
657,Lixourion,38.2019,20.4314,75.2,83,20,6.91,GR,few clouds
658,Shasta Lake,40.6804,-122.3708,86.72,36,1,3.0,US,clear sky
659,Bandarbeyla,9.4942,50.8122,80.01,66,83,28.43,SO,broken clouds
660,Taoudenni,22.6783,-3.9836,94.75,25,4,8.12,ML,clear sky
661,Amapa,1.0,-52.0,70.25,98,100,0.67,BR,overcast clouds
662,Yaan,7.3833,8.5667,72.79,88,96,4.79,NG,overcast clouds
663,Bangassou,4.7413,22.8184,67.75,96,98,1.52,CF,light rain
664,Hope,33.6671,-93.5916,75.25,94,100,2.39,US,overcast clouds
665,Esperantinopolis,-4.8667,-44.7083,73.38,43,86,4.9,BR,overcast clouds
666,Newark,40.7357,-74.1724,75.92,84,100,5.75,US,overcast clouds
667,Ayagoz,47.9714,80.4392,64.51,31,10,7.18,KZ,clear sky
668,Eenhana,-17.4667,16.3333,49.68,18,25,6.31,NA,scattered clouds
669,Oussouye,12.485,-16.5469,75.7,89,100,4.79,SN,overcast clouds
670,Sibolga,1.7427,98.7792,86.34,55,100,4.29,ID,overcast clouds
671,Walvis Bay,-22.9575,14.5053,58.21,57,11,8.88,NA,few clouds
672,Mizdah,31.4451,12.9801,69.8,49,0,1.68,LY,clear sky
673,Farafangana,-22.8167,47.8333,68.13,76,100,8.93,MG,light rain
674,La Asuncion,11.0333,-63.8628,77.79,83,100,4.03,VE,overcast clouds
675,Vestmannaeyjar,63.4427,-20.2734,50.61,81,100,14.38,IS,overcast clouds
676,Emporia,38.4039,-96.1817,70.0,78,0,5.75,US,clear sky
677,Forestville,38.8451,-76.875,73.06,97,75,0.0,US,mist
678,Kallaste,58.655,27.1592,66.43,76,94,13.71,EE,overcast clouds
679,Fayaoue,-20.65,166.5333,74.86,78,14,19.55,NC,few clouds
