City_ID,City,Lat,Lng,Max Temp,Humidity,Cloudiness,Wind Speed,Country,Date
0,Atar,20.5169,-13.0499,99.45,24,9,12.35,MR,2022-08-03 16:51:51
1,Rikitea,-23.1203,-134.9692,72.28,72,80,15.93,PF,2022-08-03 16:51:51
2,Yadrin,55.9405,46.2062,68.05,69,70,1.57,RU,2022-08-03 16:51:52
3,Castro,-24.7911,-50.0119,77.59,36,0,5.79,BR,2022-08-03 16:51:52
4,Ribeira Grande,38.5167,-28.7,79.2,89,75,10.36,PT,2022-08-03 16:51:53
5,La Palma,33.8464,-118.0467,85.1,71,75,4.61,US,2022-08-03 16:51:53
6,Upernavik,72.7868,-56.1549,45.01,77,73,2.06,GL,2022-08-03 16:51:54
7,Saint George,37.1041,-113.5841,91.63,39,0,4.61,US,2022-08-03 16:51:54
8,Albany,42.6001,-73.9662,85.68,51,2,1.01,US,2022-08-03 16:51:39
9,Ushuaia,-54.8,-68.3,40.62,87,75,2.3,AR,2022-08-03 16:51:55
10,Murgud,16.4,74.2,73.85,95,100,3.56,IN,2022-08-03 16:51:55
11,Busselton,-33.65,115.3333,53.69,76,87,17.6,AU,2022-08-03 16:50:03
12,Clyde River,70.4692,-68.5914,37.63,100,100,8.05,CA,2022-08-03 16:51:56
13,Dikson,73.5069,80.5464,42.01,100,100,7.34,RU,2022-08-03 16:51:57
14,Victoria,22.2855,114.1577,84.38,83,95,3.0,HK,2022-08-03 16:49:30
15,Praia,14.9215,-23.5087,84.74,65,40,13.8,CV,2022-08-03 16:51:57
16,Bluff,-46.6,168.3333,44.8,73,100,14.99,NZ,2022-08-03 16:51:58
17,Danville,36.586,-79.395,91.87,48,0,3.44,US,2022-08-03 16:49:36
18,Tambovka,50.0969,128.0489,68.72,74,87,3.18,RU,2022-08-03 16:51:58
19,Longyearbyen,78.2186,15.6401,53.44,66,75,10.36,SJ,2022-08-03 16:51:59
20,Cavalcante,-13.7975,-47.4583,86.79,22,27,8.32,BR,2022-08-03 16:51:59
21,Gat,31.61,34.7642,85.41,100,5,8.77,IL,2022-08-03 16:52:00
22,Qaanaaq,77.484,-69.3632,44.73,63,29,1.48,GL,2022-08-03 16:52:00
23,Barrow,71.2906,-156.7887,48.56,64,100,15.08,US,2022-08-03 16:52:00
24,Bambous Virieux,-20.3428,57.7575,68.25,77,40,5.75,MU,2022-08-03 16:52:01
25,Point Pedro,9.8167,80.2333,80.46,83,100,20.09,LK,2022-08-03 16:52:01
26,Vaini,-21.2,-175.2,75.36,94,40,9.22,TO,2022-08-03 16:52:02
27,Punta Arenas,-53.15,-70.9167,39.31,87,75,9.22,CL,2022-08-03 16:50:14
28,Hasaki,35.7333,140.8333,77.4,94,95,12.97,JP,2022-08-03 16:51:49
29,San Cristobal,7.7669,-72.225,71.78,91,100,5.12,VE,2022-08-03 16:52:03
30,Vestmannaeyjar,63.4427,-20.2734,54.59,62,20,23.02,IS,2022-08-03 16:52:03
31,Tchibanga,-2.85,11.0333,74.91,68,24,8.5,GA,2022-08-03 16:52:03
32,Gazli,40.1333,63.45,87.82,19,1,9.71,UZ,2022-08-03 16:52:04
33,Nikolskoye,59.7035,30.7861,73.29,70,60,2.46,RU,2022-08-03 16:52:04
34,Lebu,-37.6167,-73.65,51.28,73,7,3.78,CL,2022-08-03 16:49:09
35,Kavieng,-2.5744,150.7967,81.1,80,97,15.73,PG,2022-08-03 16:52:05
36,Omsukchan,62.5333,155.8,50.52,97,98,6.46,RU,2022-08-03 16:52:05
37,Saskylakh,71.9167,114.0833,44.02,69,100,8.77,RU,2022-08-03 16:52:06
38,Hirara,24.8,125.2833,85.03,75,51,17.09,JP,2022-08-03 16:52:07
39,Pisco,-13.7,-76.2167,66.02,68,0,6.91,PE,2022-08-03 16:52:07
40,Bairiki,1.3292,172.9752,80.6,78,40,11.5,KI,2022-08-03 16:52:07
41,Pevek,69.7008,170.3133,34.99,99,100,10.51,RU,2022-08-03 16:52:08
42,Paamiut,61.994,-49.6678,52.56,74,100,27.2,GL,2022-08-03 16:52:08
43,Mar Del Plata,-38.0023,-57.5575,52.09,99,100,8.99,AR,2022-08-03 16:47:33
44,Kapaa,22.0752,-159.319,75.52,92,75,16.11,US,2022-08-03 16:50:50
45,Asfi,32.2994,-9.2372,76.48,67,0,20.49,MA,2022-08-03 16:52:10
46,Tefe,-3.3542,-64.7114,89.71,66,40,4.16,BR,2022-08-03 16:53:11
47,Terrace,54.5163,-128.6035,57.11,88,100,5.75,CA,2022-08-03 16:53:11
48,La Ronge,55.1001,-105.2842,62.85,55,40,5.75,CA,2022-08-03 16:53:11
49,Khabary,53.6259,79.5345,59.7,60,32,9.6,RU,2022-08-03 16:53:12
50,Huangmei,30.1924,116.025,83.07,76,1,2.35,CN,2022-08-03 16:53:12
51,Kaitangata,-46.2817,169.8464,43.32,86,100,3.98,NZ,2022-08-03 16:53:13
52,Hobart,-42.8794,147.3294,49.26,85,34,6.91,AU,2022-08-03 16:52:14
53,Berlevag,70.8578,29.0864,55.4,93,100,13.8,NO,2022-08-03 16:53:13
54,Mount Gambier,-37.8333,140.7667,50.13,87,52,10.94,AU,2022-08-03 16:53:14
55,Bitung,1.4451,125.1824,77.85,85,94,11.18,ID,2022-08-03 16:53:14
56,Norden,53.6,7.2,83.95,81,69,8.16,DE,2022-08-03 16:53:15
57,Yellowknife,62.456,-114.3525,61.32,63,20,8.99,CA,2022-08-03 16:52:42
58,Bethel,41.3712,-73.414,87.15,56,0,1.01,US,2022-08-03 16:53:15
59,Chuy,-33.6971,-53.4616,57.4,98,100,2.35,UY,2022-08-03 16:53:16
60,Santarem,-2.4431,-54.7083,86.13,74,40,16.11,BR,2022-08-03 16:53:16
61,Adra,36.7496,-3.0206,99.37,51,0,9.24,ES,2022-08-03 16:49:43
62,Mataura,-46.1927,168.8643,44.47,89,100,3.11,NZ,2022-08-03 16:53:17
63,Inuvik,68.3499,-133.7218,47.41,93,75,1.14,CA,2022-08-03 16:53:17
64,Vila Velha,-20.3297,-40.2925,76.95,84,40,14.97,BR,2022-08-03 16:48:54
65,Saint-Philippe,-21.3585,55.7679,69.39,85,62,9.73,RE,2022-08-03 16:53:18
66,Hilo,19.7297,-155.09,74.28,89,40,5.75,US,2022-08-03 16:52:39
67,Zhanaozen,43.3,52.8,88.45,19,0,10.38,KZ,2022-08-03 16:53:19
68,Wad Madani,14.4012,33.5199,81.57,62,88,8.97,SD,2022-08-03 16:53:19
69,Ardakan,32.31,54.0175,94.86,14,0,8.34,IR,2022-08-03 16:53:20
70,Chimbote,-9.0853,-78.5783,66.96,74,15,10.6,PE,2022-08-03 16:53:20
71,East London,-33.0153,27.9116,67.14,68,0,5.75,ZA,2022-08-03 16:53:21
72,Tiksi,71.6872,128.8694,39.83,85,93,5.68,RU,2022-08-03 16:53:21
73,Ewa Beach,21.3156,-158.0072,75.09,81,20,4.61,US,2022-08-03 16:53:22
74,Ponta Delgada,37.7333,-25.6667,77.72,73,20,11.5,PT,2022-08-03 16:53:22
75,Margate,51.3813,1.3862,82.87,60,26,7.0,GB,2022-08-03 16:53:22
76,Georgetown,5.4112,100.3354,80.53,91,20,4.61,MY,2022-08-03 16:53:23
77,Ahipara,-35.1667,173.1667,52.57,91,70,4.43,NZ,2022-08-03 16:53:23
78,Hermanus,-34.4187,19.2345,55.8,84,7,14.79,ZA,2022-08-03 16:53:25
79,Aboso,5.3617,-1.9473,78.44,62,88,7.05,GH,2022-08-03 16:53:25
80,Bredasdorp,-34.5322,20.0403,51.35,88,13,7.0,ZA,2022-08-03 16:51:59
81,Port Alfred,-33.5906,26.891,64.18,70,100,3.74,ZA,2022-08-03 16:53:26
82,Zhigansk,66.7697,123.3711,47.32,59,100,18.75,RU,2022-08-03 16:53:26
83,Chokurdakh,70.6333,147.9167,49.35,63,100,4.54,RU,2022-08-03 16:53:23
84,Sokoni,-6.4333,39.55,75.4,78,0,18.5,TZ,2022-08-03 16:53:27
85,Quelimane,-17.8786,36.8883,73.35,73,75,5.75,MZ,2022-08-03 16:53:27
86,Atuona,-9.8,-139.0333,77.31,73,0,15.75,PF,2022-08-03 16:51:51
87,Tuktoyaktuk,69.4541,-133.0374,48.2,87,75,5.75,CA,2022-08-03 16:53:28
88,Deputatskiy,69.3,139.9,42.46,95,100,6.96,RU,2022-08-03 16:53:28
89,Sobolevo,54.4299,31.8996,68.77,76,99,3.31,RU,2022-08-03 16:54:29
90,Ossora,59.2353,163.0719,55.74,86,91,0.04,RU,2022-08-03 16:54:29
91,Yulara,-25.2406,130.9889,60.76,41,99,9.01,AU,2022-08-03 16:51:44
92,Luang Prabang,19.8856,102.1347,74.41,97,35,1.34,LA,2022-08-03 16:54:30
93,Miri,4.4148,114.0089,80.74,94,40,3.44,MY,2022-08-03 16:54:30
94,Batticaloa,7.7102,81.6924,81.18,65,100,6.13,LK,2022-08-03 16:54:31
95,Kruisfontein,-34.0033,24.7314,57.72,81,94,4.09,ZA,2022-08-03 16:53:40
96,Bengkulu,-3.8004,102.2655,75.34,89,100,3.51,ID,2022-08-03 16:54:32
97,Torbay,47.6666,-52.7314,77.88,77,75,18.41,CA,2022-08-03 16:54:33
98,Namibe,-15.1961,12.1522,65.03,72,0,20.71,AO,2022-08-03 16:54:33
99,Cherskiy,68.75,161.3,42.93,92,100,7.02,RU,2022-08-03 16:53:42
100,New Norfolk,-42.7826,147.0587,48.92,79,32,3.0,AU,2022-08-03 16:54:35
101,Esperance,-33.8667,121.9,51.64,77,93,34.2,AU,2022-08-03 16:54:35
102,Durgapur,23.4833,87.3167,79.09,100,75,2.3,IN,2022-08-03 16:54:36
103,Chumikan,54.7183,135.315,53.31,97,100,4.36,RU,2022-08-03 16:54:36
104,Kavaratti,10.5669,72.642,77.74,90,100,30.67,IN,2022-08-03 16:53:04
105,Rapid Valley,44.0625,-103.1463,83.77,31,1,5.01,US,2022-08-03 16:54:18
106,Comodoro Rivadavia,-45.8667,-67.5,49.86,46,0,3.44,AR,2022-08-03 16:54:37
107,Van,38.4924,43.3831,76.26,38,0,4.94,TR,2022-08-03 16:54:38
108,Fushan,37.4958,121.2581,79.05,91,0,6.11,CN,2022-08-03 16:54:39
109,Lesnoye,58.2841,35.5158,67.71,70,51,1.92,RU,2022-08-03 16:54:39
110,Dunedin,-45.8742,170.5036,49.8,68,100,7.0,NZ,2022-08-03 16:54:40
111,Mitsamiouli,-11.3847,43.2844,75.49,78,20,4.61,KM,2022-08-03 16:54:40
112,Kodiak,57.79,-152.4072,60.31,59,0,13.8,US,2022-08-03 16:51:26
113,Sorland,67.667,12.6934,57.06,85,100,4.34,NO,2022-08-03 16:54:31
114,Valparaiso,-33.0393,-71.6273,56.84,66,40,8.05,CL,2022-08-03 16:54:41
115,Kahului,20.8947,-156.47,76.84,76,20,6.91,US,2022-08-03 16:53:35
116,Moindou,-21.6924,165.677,70.75,93,61,5.55,NC,2022-08-03 16:54:41
117,Malakal,9.5334,31.6605,73.02,90,65,1.68,SS,2022-08-03 16:54:42
118,Purpe,64.4803,76.6897,61.23,61,58,2.91,RU,2022-08-03 16:54:42
119,Machali,-34.1833,-70.6667,51.08,66,0,2.3,CL,2022-08-03 16:54:43
120,Marsaxlokk,35.8419,14.5431,88.41,48,0,6.91,MT,2022-08-03 16:54:43
121,Neiafu,-18.65,-173.9833,77.68,73,75,6.91,TO,2022-08-03 16:54:44
122,Borogontsy,62.6683,131.1683,62.73,96,94,3.38,RU,2022-08-03 16:54:44
123,Katsuura,35.1333,140.3,80.73,89,97,15.05,JP,2022-08-03 16:54:44
124,Sinnamary,5.3833,-52.95,82.71,81,100,11.68,GF,2022-08-03 16:54:02
125,Tasiilaq,65.6145,-37.6368,41.07,72,64,8.7,GL,2022-08-03 16:52:26
126,Asau,46.4333,26.4,77.92,63,56,4.36,RO,2022-08-03 16:54:45
127,Praya,14.9215,-23.5087,84.74,65,40,13.8,CV,2022-08-03 16:53:42
128,Antalaha,-14.9003,50.2788,67.46,85,14,7.83,MG,2022-08-03 16:54:29
129,Ilulissat,69.2167,-51.1,47.12,68,99,8.37,GL,2022-08-03 16:54:46
130,Vila Franca Do Campo,37.7167,-25.4333,77.41,63,4,7.31,PT,2022-08-03 16:53:38
131,Husavik,66.0449,-17.3389,45.48,96,100,17.69,IS,2022-08-03 16:54:47
132,Khatanga,71.9667,102.5,49.6,66,92,6.98,RU,2022-08-03 16:53:58
133,Constitucion,-35.3333,-72.4167,54.09,54,82,7.65,CL,2022-08-03 16:53:33
134,Beringovskiy,63.05,179.3167,50.9,86,91,7.0,RU,2022-08-03 16:54:48
135,Jamestown,42.097,-79.2353,83.95,50,1,5.99,US,2022-08-03 16:51:34
136,Sivas,39.7916,37.0019,70.84,61,0,7.87,TR,2022-08-03 16:55:48
137,Hambantota,6.1241,81.1185,79.16,79,100,24.16,LK,2022-08-03 16:52:54
138,Seoul,37.5683,126.9778,80.2,92,75,3.44,KR,2022-08-03 16:55:13
139,Ancud,-41.8697,-73.8203,44.22,89,99,17.54,CL,2022-08-03 16:55:49
140,Avenal,36.0041,-120.129,85.55,30,0,3.06,US,2022-08-03 16:55:50
141,Iqaluit,63.7506,-68.5145,53.33,66,40,5.99,CA,2022-08-03 16:55:50
142,Glendive,47.1053,-104.7125,78.49,46,0,1.01,US,2022-08-03 16:55:51
143,Arraial Do Cabo,-22.9661,-42.0278,76.96,69,20,10.36,BR,2022-08-03 16:55:51
144,Sakakah,29.9697,40.2064,110.77,14,4,10.89,SA,2022-08-03 16:55:51
145,Benghazi,32.1167,20.0667,83.07,62,0,19.75,LY,2022-08-03 16:55:52
146,Ca Mau,9.1769,105.15,77.25,92,100,3.18,VN,2022-08-03 16:55:03
147,Puerto Ayora,-0.7393,-90.3518,78.76,78,70,8.99,EC,2022-08-03 16:54:01
148,Airai,-8.9266,125.4092,55.44,81,76,2.26,TL,2022-08-03 16:51:24
149,Praia Da Vitoria,38.7333,-27.0667,80.76,83,40,4.07,PT,2022-08-03 16:55:53
150,Taman,45.2117,36.7161,77.95,67,2,7.72,RU,2022-08-03 16:55:53
151,Puerto Del Rosario,28.5004,-13.8627,78.55,73,20,20.71,ES,2022-08-03 16:53:28
152,General Pico,-35.6566,-63.7568,63.82,50,0,6.02,AR,2022-08-03 16:55:54
153,Cairns,-16.9167,145.7667,71.55,88,100,6.91,AU,2022-08-03 16:55:32
154,Neuquen,-38.9516,-68.0591,49.89,46,42,0.0,AR,2022-08-03 16:55:55
155,Vao,-22.6667,167.4833,71.38,84,16,15.37,NC,2022-08-03 16:55:55
156,Colquechaca,-18.6667,-66.0167,49.37,11,11,11.27,BO,2022-08-03 16:55:55
157,Lorengau,-2.0226,147.2712,81.64,79,96,8.77,PG,2022-08-03 16:55:56
158,Monchegorsk,67.9397,32.8739,62.37,58,60,8.08,RU,2022-08-03 16:55:56
159,Menongue,-14.6585,17.691,71.28,26,14,1.43,AO,2022-08-03 16:55:57
160,Arman,59.7,150.1667,53.02,93,97,3.15,RU,2022-08-03 16:55:57
161,Uray,60.1247,64.7758,62.94,58,5,3.6,RU,2022-08-03 16:55:58
162,Cabo San Lucas,22.8909,-109.9124,92.17,54,0,5.08,MX,2022-08-03 16:55:58
163,Butaritari,3.0707,172.7902,80.85,78,41,14.61,KI,2022-08-03 16:55:59
164,Thompson,55.7435,-97.8558,59.16,47,40,12.66,CA,2022-08-03 16:55:59
165,Alofi,-19.0595,-169.9187,71.49,83,74,5.75,NU,2022-08-03 16:56:00
166,Klaksvik,62.2266,-6.589,49.12,81,32,19.39,FO,2022-08-03 16:56:00
167,Rio Gallegos,-51.6226,-69.2181,39.25,93,75,7.74,AR,2022-08-03 16:51:36
168,Peterhead,57.5058,-1.7981,63.0,78,58,18.41,GB,2022-08-03 16:56:00
169,Sitka,57.0531,-135.33,53.49,94,40,0.0,US,2022-08-03 16:56:01
170,Russell,32.3502,-85.1999,79.88,74,75,3.44,US,2022-08-03 16:56:01
171,Luau,-10.7073,22.2247,80.38,24,49,3.98,AO,2022-08-03 16:56:02
172,Pyay,18.8167,95.2167,77.65,93,100,8.1,MM,2022-08-03 16:56:02
173,Tual,-5.6667,132.75,79.61,85,61,15.39,ID,2022-08-03 16:56:03
174,Aykhal,66.0,111.5,41.79,97,100,23.02,RU,2022-08-03 16:51:52
175,Barraute,48.4335,-77.6328,59.27,89,100,12.84,CA,2022-08-03 16:56:03
176,Emsdetten,52.1833,7.5333,93.47,37,0,11.5,DE,2022-08-03 16:56:04
177,Rawson,-43.3002,-65.1023,50.16,46,99,10.47,AR,2022-08-03 16:56:04
178,Pout,14.7739,-17.0603,80.58,73,40,4.61,SN,2022-08-03 16:56:05
179,Salalah,17.0151,54.0924,77.88,94,94,5.75,OM,2022-08-03 16:57:05
180,Bathsheba,13.2167,-59.5167,88.41,81,75,21.85,BB,2022-08-03 16:54:43
181,Bartica,6.4,-58.6167,86.32,72,91,3.89,GY,2022-08-03 16:57:06
182,Balabac,7.9868,117.0645,81.46,77,100,5.86,PH,2022-08-03 16:57:06
183,Anadyr,64.75,177.4833,55.9,66,0,4.47,RU,2022-08-03 16:57:07
184,Flinders,-34.5833,150.8552,62.19,77,22,7.0,AU,2022-08-03 16:57:07
185,Port Macquarie,-31.4333,152.9167,48.09,100,40,0.0,AU,2022-08-03 16:53:10
186,Manaquiri,-3.3167,-60.35,91.85,44,46,5.57,BR,2022-08-03 16:57:09
187,Sabang,5.8933,95.3214,81.3,74,100,23.78,ID,2022-08-03 16:57:09
188,Ostrovnoy,68.0531,39.5131,57.99,86,93,11.1,RU,2022-08-03 16:56:46
189,Winslow,35.0242,-110.6974,85.26,34,96,8.86,US,2022-08-03 16:57:10
190,Waipawa,-41.4122,175.5153,43.43,90,2,6.49,NZ,2022-08-03 16:55:59
191,Broome,42.2506,-75.833,85.19,51,3,5.01,US,2022-08-03 16:57:10
192,Bubaque,11.2833,-15.8333,80.85,74,99,10.76,GW,2022-08-03 16:57:11
193,Geraldton,-28.7667,114.6,54.01,82,75,5.75,AU,2022-08-03 16:57:11
194,Burnie,-41.0667,145.9167,51.94,89,80,17.76,AU,2022-08-03 16:57:12
195,Lavrentiya,65.5833,-171.0,48.61,78,3,4.88,RU,2022-08-03 16:55:00
196,Punta Alta,-38.8759,-62.0736,51.48,63,0,3.74,AR,2022-08-03 16:57:12
197,Kochubey,44.3861,46.5825,79.93,61,12,8.63,RU,2022-08-03 16:57:13
198,Aloleng,16.1307,119.7824,80.6,79,100,6.67,PH,2022-08-03 16:57:13
199,Bilibino,68.0546,166.4372,53.96,98,100,2.84,RU,2022-08-03 16:57:14
200,Iquique,-20.2208,-70.1431,62.64,65,27,8.7,CL,2022-08-03 16:57:14
201,Hovd,48.0056,91.6419,69.84,32,52,3.38,MN,2022-08-03 16:57:14
202,Mocajuba,-2.5842,-49.5072,94.32,32,16,5.03,BR,2022-08-03 16:57:15
203,Itarema,-2.9248,-39.9167,83.97,63,57,17.34,BR,2022-08-03 16:55:19
204,Bardiyah,31.7561,25.0865,81.07,60,0,13.98,LY,2022-08-03 16:56:29
205,Cefalu,38.0386,14.0229,86.54,71,2,1.01,IT,2022-08-03 16:57:16
206,Vostok,46.4856,135.8833,62.37,95,89,4.45,RU,2022-08-03 16:57:16
207,El Fuerte,26.4189,-108.6194,87.75,59,45,1.88,MX,2022-08-03 16:57:16
208,Shimoda,34.6667,138.95,86.11,78,79,4.34,JP,2022-08-03 16:57:17
209,Hithadhoo,-0.6,73.0833,81.46,72,43,16.08,MV,2022-08-03 16:57:17
210,Mayo,38.8876,-76.5119,93.31,56,3,3.0,US,2022-08-03 16:57:18
211,Cockburn Town,21.4612,-71.1419,82.09,74,3,16.51,TC,2022-08-03 16:57:18
212,Mareeba,-17.0,145.4333,66.92,91,27,2.53,AU,2022-08-03 16:57:19
213,Ambilobe,-13.2,49.05,68.94,75,16,4.92,MG,2022-08-03 16:54:21
214,Komsomolskiy,40.4272,71.7189,80.02,35,57,6.62,UZ,2022-08-03 16:57:19
215,Burns Lake,54.2331,-125.7533,53.02,60,100,4.14,CA,2022-08-03 16:57:20
216,Tahta,26.7693,31.5021,97.25,15,39,15.1,EG,2022-08-03 16:57:20
217,Carlsbad,33.1581,-117.3506,84.27,79,40,8.05,US,2022-08-03 16:54:20
218,Rock Springs,41.5875,-109.2029,78.24,42,4,3.0,US,2022-08-03 16:57:21
219,Cape Town,-33.9258,18.4232,57.61,75,40,10.36,ZA,2022-08-03 16:53:14
220,Boca Do Acre,-8.7522,-67.3978,98.37,33,28,2.3,BR,2022-08-03 16:57:21
221,Kieta,-6.2167,155.6333,77.65,88,58,7.02,PG,2022-08-03 16:57:22
222,Ames,42.0347,-93.6199,86.07,70,0,12.66,US,2022-08-03 16:57:22
223,Grefrath,51.3363,6.3407,95.18,39,0,6.91,DE,2022-08-03 16:57:23
224,Nome,64.5011,-165.4064,48.27,100,100,0.0,US,2022-08-03 16:57:23
225,Port Elizabeth,-33.918,25.5701,62.31,56,0,16.11,ZA,2022-08-03 16:58:23
226,Soe,-9.8607,124.284,58.95,87,100,3.56,ID,2022-08-03 16:58:24
227,Visby,57.6409,18.296,75.42,43,0,21.85,SE,2022-08-03 16:58:24
228,Dayong,25.0209,118.2898,76.78,91,74,2.24,CN,2022-08-03 16:58:25
229,San Matias,-16.3667,-58.4,100.33,14,53,8.48,BO,2022-08-03 16:58:25
230,Emerald,-23.5333,148.1667,56.34,89,9,7.87,AU,2022-08-03 16:58:25
231,Mogok,22.9167,96.5,66.49,98,94,2.44,MM,2022-08-03 16:58:26
232,Aljezur,37.3191,-8.8033,73.4,72,5,14.07,PT,2022-08-03 16:58:26
233,Anori,-3.7728,-61.6442,92.03,45,66,4.43,BR,2022-08-03 16:58:27
234,Camana,-16.6228,-72.7111,64.04,72,42,13.4,PE,2022-08-03 16:58:27
235,Mahebourg,-20.4081,57.7,68.29,77,40,5.75,MU,2022-08-03 16:53:27
236,Kampong Thum,12.7111,104.8887,76.77,92,100,3.74,KH,2022-08-03 16:58:28
237,Caucaia,-3.7361,-38.6531,84.15,74,75,13.8,BR,2022-08-03 16:58:28
238,Maniitsoq,65.4167,-52.9,45.3,88,100,11.25,GL,2022-08-03 16:58:28
239,Harper,4.375,-7.7169,76.48,75,99,9.26,LR,2022-08-03 16:58:29
240,Roma,43.2128,-75.4557,82.81,52,20,6.91,US,2022-08-03 16:56:03
241,Abilene,32.4487,-99.7331,95.07,38,71,16.37,US,2022-08-03 16:57:07
242,Kamenka,51.3223,42.7678,75.97,52,100,8.23,RU,2022-08-03 16:58:30
243,Wote,-1.7808,37.6288,68.29,55,84,8.41,KE,2022-08-03 16:58:30
244,Xining,36.6167,101.7667,63.14,90,66,1.23,CN,2022-08-03 16:58:30
245,Buala,-8.145,159.5921,78.51,86,30,9.28,SB,2022-08-03 16:58:31
246,Sao Joao Da Barra,-21.6403,-41.0511,82.49,72,34,11.05,BR,2022-08-03 16:53:35
247,Oksfjord,70.2396,22.3479,66.27,54,45,11.7,NO,2022-08-03 16:58:31
248,Acarau,-2.8856,-40.12,83.46,66,51,17.49,BR,2022-08-03 16:57:21
249,Bilma,18.6853,12.9164,96.87,29,55,3.13,NE,2022-08-03 16:58:32
250,Guarapari,-20.6667,-40.4975,74.89,67,4,8.23,BR,2022-08-03 16:58:33
251,Belyy Yar,53.6039,91.3903,60.69,72,0,0.0,RU,2022-08-03 16:58:33
252,Portlethen,57.0547,-2.1307,62.47,74,40,14.97,GB,2022-08-03 16:58:33
253,Rio Grande,-32.035,-52.0986,64.94,92,100,7.65,BR,2022-08-03 16:58:34
254,Guerrero Negro,27.9769,-114.0611,76.66,66,57,14.65,MX,2022-08-03 16:55:17
255,Nelson Bay,-32.7167,152.15,62.1,86,46,4.0,AU,2022-08-03 16:55:24
256,Araouane,18.9048,-3.5265,103.28,23,6,6.06,ML,2022-08-03 16:58:35
257,Port Blair,11.6667,92.75,78.84,89,100,8.05,IN,2022-08-03 16:58:35
258,Narsaq,60.9167,-46.05,51.35,59,100,5.82,GL,2022-08-03 16:58:35
259,Jinchang,38.4953,102.1739,77.88,57,100,3.8,CN,2022-08-03 16:58:36
260,Warrnambool,-38.3833,142.4833,53.64,83,74,17.27,AU,2022-08-03 16:58:36
261,Kutum,14.2,24.6667,84.02,38,67,9.78,SD,2022-08-03 16:58:37
262,Sao Gabriel,-30.3364,-54.32,72.88,71,82,6.29,BR,2022-08-03 16:58:37
263,Puerto Narino,-3.7703,-70.3831,91.42,49,92,1.74,CO,2022-08-03 16:58:38
264,Forbes,-33.3833,148.0167,60.35,85,88,18.54,AU,2022-08-03 16:58:38
265,Xiaoweizhai,26.1903,107.5125,71.91,89,11,2.66,CN,2022-08-03 16:58:39
266,Naze,28.3667,129.4833,79.72,87,79,6.76,JP,2022-08-03 16:58:39
267,Coihaique,-45.5752,-72.0662,39.81,75,75,6.91,CL,2022-08-03 16:55:20
268,West Wendover,40.7391,-114.0733,80.62,36,5,1.52,US,2022-08-03 16:58:40
269,Henties Bay,-22.116,14.2845,56.19,84,33,9.8,NA,2022-08-03 16:58:40
270,Mirabad,30.4362,61.8383,94.89,13,0,23.89,AF,2022-08-03 16:58:41
271,Guaratinga,-16.5667,-39.5667,84.33,36,26,6.33,BR,2022-08-03 16:58:41
272,Angoche,-16.2325,39.9086,73.24,74,49,8.21,MZ,2022-08-03 16:59:41
273,Nehe,48.4833,124.8333,72.21,66,32,2.86,CN,2022-08-03 16:59:42
274,Luangwa,-15.6167,30.4167,70.45,57,38,2.33,ZM,2022-08-03 16:59:42
275,Teseney,15.11,36.6575,80.19,62,91,5.01,ER,2022-08-03 16:59:43
276,Muleba,-1.8397,31.6544,70.84,65,80,3.62,TZ,2022-08-03 16:59:44
277,Torata,-17.0769,-70.8433,66.25,21,0,8.86,PE,2022-08-03 16:59:22
278,Panama City,8.9936,-79.5197,84.15,83,40,3.44,PA,2022-08-03 16:58:09
279,Marsh Harbour,26.5412,-77.0636,84.18,66,0,12.59,BS,2022-08-03 16:59:45
280,Dinguiraye,11.3,-10.7167,77.79,84,100,4.94,GN,2022-08-03 16:59:45
281,Port Hedland,-20.3167,118.5667,62.65,88,0,10.36,AU,2022-08-03 16:59:46
282,Porto Novo,6.4965,2.6036,78.62,70,45,11.56,BJ,2022-08-03 16:59:46
283,Vanavara,60.34,102.2797,54.19,89,100,4.94,RU,2022-08-03 16:59:47
284,Quata,-22.2475,-50.6983,88.93,23,0,7.99,BR,2022-08-03 16:59:47
285,Svetlogorsk,52.6333,29.7333,67.33,90,63,7.99,BY,2022-08-03 16:59:47
286,Vulcan,45.3833,23.2667,70.38,57,33,3.8,RO,2022-08-03 16:59:48
287,Hartford,41.7668,-72.7662,88.56,55,0,1.99,US,2022-08-03 16:55:18
288,Atlantis,-33.5667,18.4834,55.69,79,0,4.63,ZA,2022-08-03 16:59:49
289,Bonthe,7.5264,-12.505,78.42,81,91,12.88,SL,2022-08-03 16:59:49
290,Linhares,-19.3911,-40.0722,85.96,39,34,7.29,BR,2022-08-03 16:59:49
291,Griffith,41.5284,-87.4237,92.14,69,0,13.8,US,2022-08-03 16:56:47
292,Kayes,14.0,-11.0,87.33,60,100,3.96,ML,2022-08-03 16:59:50
293,Matara,5.9485,80.5353,77.52,88,99,16.89,LK,2022-08-03 16:59:51
294,San Andres,12.5847,-81.7006,86.02,74,75,16.11,CO,2022-08-03 16:59:51
295,San Patricio,28.017,-97.5169,94.15,42,36,19.71,US,2022-08-03 16:59:52
296,Natal,-5.795,-35.2094,86.22,66,75,10.36,BR,2022-08-03 16:58:54
297,Batemans Bay,-35.7167,150.1833,62.1,74,49,8.41,AU,2022-08-03 16:56:38
298,Mount Isa,-20.7333,139.5,62.37,67,1,0.0,AU,2022-08-03 16:59:52
299,Eureka,40.8021,-124.1637,60.93,88,27,6.24,US,2022-08-03 16:57:47
300,Bagdarin,54.4333,113.6,60.17,73,100,4.43,RU,2022-08-03 16:59:53
301,Santa Maria,-29.6842,-53.8069,67.3,77,75,9.22,BR,2022-08-03 16:56:33
302,Codrington,-38.2667,141.9667,51.31,89,62,15.26,AU,2022-08-03 16:59:54
303,Oranjemund,-28.55,16.4333,55.13,87,0,7.45,NA,2022-08-03 16:55:16
304,Mazatlan,23.2167,-106.4167,89.91,73,21,1.01,MX,2022-08-03 16:55:48
305,Faya,18.3851,42.4509,68.11,68,96,6.69,SA,2022-08-03 16:59:55
306,Carnarvon,-24.8667,113.6333,65.53,58,98,14.72,AU,2022-08-03 16:55:35
307,Ostuni,40.7276,17.5764,90.59,52,0,11.54,IT,2022-08-03 16:59:55
308,Trat,12.5,102.5,80.87,92,100,1.16,TH,2022-08-03 16:59:56
309,Port Lincoln,-34.7333,135.8667,55.9,66,0,20.58,AU,2022-08-03 16:59:56
310,Saravan,39.7196,45.6483,72.61,59,60,7.0,AM,2022-08-03 16:59:57
311,Macomb,40.4592,-90.6718,89.02,75,40,9.22,US,2022-08-03 16:55:18
312,Libourne,44.9167,-0.25,99.1,16,3,8.52,FR,2022-08-03 16:59:57
313,Noumea,-22.2763,166.4572,75.0,99,37,7.54,NC,2022-08-03 16:59:58
314,Qaqortoq,60.7167,-46.0333,52.47,63,100,3.6,GL,2022-08-03 16:59:58
315,Kindu,-2.95,25.95,77.97,59,86,0.94,CD,2022-08-03 16:59:59
316,Sao Joao Do Piaui,-8.3581,-42.2467,93.22,30,26,11.14,BR,2022-08-03 17:00:59
317,Sao Filipe,14.8961,-24.4956,78.3,79,67,2.89,CV,2022-08-03 17:01:00
318,Dubbo,-32.25,148.6167,66.33,63,80,19.57,AU,2022-08-03 17:00:31
319,Severo-Kurilsk,50.6789,156.125,51.44,87,69,7.36,RU,2022-08-03 17:01:01
320,Tolaga Bay,-38.3667,178.3,50.14,82,4,3.85,NZ,2022-08-03 17:01:01
321,Korla,41.7597,86.1469,85.77,25,47,5.7,CN,2022-08-03 17:01:02
322,Hondagua,13.9469,122.2431,77.5,90,100,3.2,PH,2022-08-03 17:01:02
323,Bira,49.0,132.4667,64.89,83,24,2.66,RU,2022-08-03 17:01:03
324,Lalmohan,22.3384,90.7419,83.86,78,100,8.52,BD,2022-08-03 17:01:03
325,Southampton,50.904,-1.4043,76.24,76,75,8.05,GB,2022-08-03 17:01:04
326,Meulaboh,4.1363,96.1285,74.68,92,100,2.13,ID,2022-08-03 17:01:04
327,Nanortalik,60.1432,-45.2371,51.17,77,100,15.52,GL,2022-08-03 17:01:05
328,Koumac,-20.5667,164.2833,71.94,92,11,7.56,NC,2022-08-03 17:01:05
329,Rawah,34.4816,41.9093,102.15,16,0,8.84,IQ,2022-08-03 17:01:06
330,Hede,33.7681,120.2517,79.38,95,0,6.42,CN,2022-08-03 17:01:06
331,Avarua,-21.2078,-159.775,71.65,56,75,6.91,CK,2022-08-03 17:01:07
332,Biograd Na Moru,43.9433,15.4519,88.75,46,2,10.38,HR,2022-08-03 17:01:07
333,Whitehorse,60.7161,-135.0538,56.1,87,100,4.61,CA,2022-08-03 16:59:09
334,Calama,-22.4667,-68.9333,64.11,16,0,22.64,CL,2022-08-03 17:00:26
335,Esfarayen,37.0765,57.5101,79.21,28,1,6.2,IR,2022-08-03 17:01:09
336,Peniche,39.3558,-9.3811,71.29,87,71,18.16,PT,2022-08-03 17:01:09
337,Police,53.5521,14.5718,91.54,33,63,4.68,PL,2022-08-03 17:01:09
338,Rurrenabaque,-14.4413,-67.5278,83.89,59,95,4.34,BO,2022-08-03 17:01:10
339,Ribeira Do Pombal,-10.8344,-38.5358,83.39,43,69,13.0,BR,2022-08-03 17:01:10
340,Lasa,46.6166,10.7002,80.69,65,48,3.2,IT,2022-08-03 17:01:11
341,Hamilton,39.1834,-84.5333,92.73,65,2,3.0,US,2022-08-03 17:00:46
342,Mogoytuy,51.2833,114.9167,62.49,95,100,8.3,RU,2022-08-03 17:01:12
343,Beira,-19.8436,34.8389,69.4,72,1,9.15,MZ,2022-08-03 17:01:12
344,Nouadhibou,20.931,-17.0347,72.59,84,80,10.67,MR,2022-08-03 17:01:13
345,Barreirinhas,-2.7469,-42.8264,86.13,59,53,9.51,BR,2022-08-03 17:01:13
346,Cantapoy,9.4906,125.4364,79.59,83,100,2.1,PH,2022-08-03 17:01:14
347,Warri,5.5167,5.75,79.2,73,100,8.93,NG,2022-08-03 17:00:18
348,Jiuquan,39.7432,98.5174,78.55,42,4,6.44,CN,2022-08-03 17:01:14
349,Ouesso,1.6136,16.0517,78.57,70,87,0.94,CG,2022-08-03 17:01:15
350,Kiruna,67.8557,20.2251,56.32,77,100,8.05,SE,2022-08-03 16:59:26
351,Ponta Do Sol,32.6667,-17.1,77.63,65,0,5.08,PT,2022-08-03 17:01:15
352,Polis,35.0367,32.4264,85.28,70,0,5.57,CY,2022-08-03 17:01:16
353,Pochutla,15.7432,-96.4661,90.82,51,52,5.01,MX,2022-08-03 17:01:16
354,Santa Rosalia,27.3167,-112.2833,87.71,39,83,3.83,MX,2022-08-03 17:01:16
355,Segezha,63.7415,34.3222,60.75,62,75,7.05,RU,2022-08-03 17:01:17
356,Sangar,63.9242,127.4739,57.29,93,28,1.54,RU,2022-08-03 17:01:17
357,Sarkand,45.41,79.9186,69.48,48,95,4.63,KZ,2022-08-03 17:01:18
358,Mackay,-21.15,149.2,63.68,93,7,6.11,AU,2022-08-03 17:01:18
359,Irbil,36.1926,44.0106,101.1,13,0,7.58,IQ,2022-08-03 17:01:19
360,Sibolga,1.7427,98.7792,74.66,95,100,8.66,ID,2022-08-03 17:01:19
361,Matay,28.419,30.7792,94.69,17,1,9.78,EG,2022-08-03 17:01:19
362,Hobyo,5.3505,48.5268,77.0,82,86,28.52,SO,2022-08-03 17:02:20
363,Evensk,61.95,159.2333,51.96,99,100,7.25,RU,2022-08-03 17:02:20
364,Panzhihua,26.5851,101.7128,72.05,88,81,0.94,CN,2022-08-03 17:00:36
365,Nantucket,41.2835,-70.0995,84.34,77,0,4.61,US,2022-08-03 17:02:21
366,Khasan,42.4308,130.6434,70.59,98,100,4.36,RU,2022-08-03 17:02:21
367,Dafeng,23.4517,108.5881,83.82,73,88,2.71,CN,2022-08-03 17:02:22
368,Bagan,54.1001,77.6646,59.61,66,4,7.49,RU,2022-08-03 17:02:22
369,Iquitos,-3.7481,-73.2472,89.49,55,99,2.3,PE,2022-08-03 17:02:23
370,Portland,45.5234,-122.6762,75.99,65,0,1.99,US,2022-08-03 16:59:25
371,Fare,-16.7,-151.0167,78.58,74,0,21.21,PF,2022-08-03 17:02:23
372,Amarpur,25.0333,86.9,82.58,75,94,4.92,IN,2022-08-03 17:02:24
373,Westport,41.1415,-73.3579,88.41,61,0,1.01,US,2022-08-03 16:58:37
374,Santa Cruz De La Palma,28.6835,-17.7642,77.14,69,40,16.11,ES,2022-08-03 17:02:24
375,Ashland,40.8167,-82.2665,87.89,63,4,13.8,US,2022-08-03 17:00:13
376,Coro,11.4045,-69.6734,86.36,62,100,17.43,VE,2022-08-03 17:02:25
377,Kozhva,65.1073,57.0459,70.48,55,99,7.58,RU,2022-08-03 17:02:25
378,Sacramento,38.4666,-121.3177,94.21,45,0,4.61,US,2022-08-03 16:58:22
379,Havre-Saint-Pierre,50.2334,-63.5986,64.04,62,1,12.93,CA,2022-08-03 17:02:26
380,Isangel,-19.55,169.2667,74.91,88,0,5.59,VU,2022-08-03 17:02:26
381,Cabedelo,-6.9811,-34.8339,79.92,73,34,6.98,BR,2022-08-03 17:02:27
382,Aklavik,68.2191,-135.0107,52.45,66,45,0.11,CA,2022-08-03 17:02:27
383,Verkhnevilyuysk,63.4453,120.3167,56.66,58,99,9.53,RU,2022-08-03 17:02:28
384,Wentzville,38.8114,-90.8529,94.95,65,95,5.99,US,2022-08-03 17:00:26
385,Maningrida,-12.0667,134.2667,71.2,93,8,6.31,AU,2022-08-03 17:02:28
386,Vitim,59.4511,112.5578,59.94,95,100,9.4,RU,2022-08-03 17:02:29
387,Sur,22.5667,59.5289,88.43,64,8,7.56,OM,2022-08-03 17:02:29
388,San Quintin,30.4833,-115.95,74.98,73,57,12.64,MX,2022-08-03 17:02:29
389,Tezu,27.9167,96.1667,76.64,96,79,3.51,IN,2022-08-03 17:02:30
390,Buchanan,5.8808,-10.0467,77.61,80,85,12.46,LR,2022-08-03 17:02:30
391,Kailaras,26.3167,77.6167,87.82,64,76,1.77,IN,2022-08-03 17:02:31
392,Kiama,-34.6833,150.8667,64.58,74,21,5.99,AU,2022-08-03 17:02:31
393,Mogadishu,2.0371,45.3438,76.37,82,8,19.42,SO,2022-08-03 17:02:32
394,Kaputa,-8.4689,29.6619,74.07,41,0,2.75,ZM,2022-08-03 17:02:32
395,Vaitape,-16.5167,-151.75,78.64,74,7,21.45,PF,2022-08-03 17:02:32
396,Padang,-0.9492,100.3543,76.15,93,100,3.98,ID,2022-08-03 17:02:33
397,Cozumel,20.5083,-86.9458,86.0,68,5,11.99,MX,2022-08-03 17:01:33
398,Mehamn,71.0357,27.8492,55.35,88,75,5.75,NO,2022-08-03 17:02:34
399,Esmeraldas,-19.7625,-44.3139,84.78,24,19,5.03,BR,2022-08-03 17:02:34
400,Dharchula,29.85,80.5333,74.39,95,97,0.76,IN,2022-08-03 17:02:34
401,Ilebo,-4.3167,20.5833,82.11,51,55,2.98,CD,2022-08-03 17:02:35
402,Cidreira,-30.1811,-50.2056,65.82,83,73,19.66,BR,2022-08-03 17:02:35
403,Kovur,14.4833,79.9833,81.61,73,97,5.01,IN,2022-08-03 17:02:36
404,Tabou,4.423,-7.3528,76.42,75,97,8.75,CI,2022-08-03 17:02:36
405,Baykit,61.67,96.37,49.91,93,100,3.13,RU,2022-08-03 17:02:36
406,Fortuna,40.5982,-124.1573,60.66,100,100,3.44,US,2022-08-03 17:02:37
407,Krasnoarmeysk,51.0239,45.6969,73.11,54,100,10.31,RU,2022-08-03 17:02:37
408,Pacific Grove,36.6177,-121.9166,77.41,84,0,7.0,US,2022-08-03 17:02:38
409,Namatanai,-3.6667,152.4333,78.48,83,70,9.4,PG,2022-08-03 17:02:38
410,Morehead,37.2711,-87.1764,90.86,65,0,10.36,US,2022-08-03 17:12:23
411,Altay,47.8667,88.1167,67.96,40,99,5.82,CN,2022-08-03 17:12:24
412,Colesberg,-30.72,25.0972,55.89,61,89,7.7,ZA,2022-08-03 17:12:24
413,Hofn,64.2539,-15.2082,49.08,67,75,18.28,IS,2022-08-03 17:12:24
414,Soyo,-6.1349,12.3689,70.12,82,25,9.84,AO,2022-08-03 17:12:25
415,Balakhninskiy,58.0106,114.2769,58.39,94,100,4.65,RU,2022-08-03 17:12:26
416,Norman Wells,65.282,-126.8329,53.44,95,100,8.86,CA,2022-08-03 17:12:26
417,Bend,44.0582,-121.3153,82.85,50,20,10.0,US,2022-08-03 17:11:00
418,Kasongo-Lunda,-6.4667,16.8167,86.11,36,45,1.88,CD,2022-08-03 17:12:26
419,Bud,39.447,-86.1758,90.41,74,1,13.62,US,2022-08-03 17:12:27
420,Fairbanks,64.8378,-147.7164,60.76,90,75,0.0,US,2022-08-03 17:09:43
421,Okhotsk,59.3833,143.3,56.28,88,100,3.42,RU,2022-08-03 17:12:27
422,Talaya,61.3833,152.75,56.98,85,100,6.67,RU,2022-08-03 17:12:28
423,Leningradskiy,69.3833,178.4167,41.77,88,100,5.93,RU,2022-08-03 17:12:28
424,Kirakira,-10.4544,161.9205,78.03,86,13,9.19,SB,2022-08-03 17:12:29
425,Jining,35.405,116.5814,81.45,85,3,7.36,CN,2022-08-03 17:12:29
426,Bowen,-20.0167,148.2333,63.77,94,21,7.31,AU,2022-08-03 17:12:30
427,Sola,-13.8833,167.55,80.85,75,3,13.15,VU,2022-08-03 17:12:30
428,Nioro,13.35,-15.75,76.53,90,100,5.82,GM,2022-08-03 17:12:30
429,Brightwater,-41.3833,173.1167,41.68,93,59,4.34,NZ,2022-08-03 17:12:31
430,Amapa,1.0,-52.0,85.14,62,100,6.82,BR,2022-08-03 17:12:31
431,Vanimo,-2.6741,141.3028,77.94,90,98,7.11,PG,2022-08-03 17:12:32
432,Boke,10.9409,-14.2967,80.17,85,100,7.45,GN,2022-08-03 17:12:32
433,Goderich,43.7501,-81.7165,81.91,76,84,20.47,CA,2022-08-03 17:12:32
434,Mahanje,-9.9333,35.3333,67.33,49,97,1.81,TZ,2022-08-03 17:12:33
435,Semnan,35.5729,53.3971,89.65,21,7,1.59,IR,2022-08-03 17:12:33
436,Nanakuli,21.3906,-158.1547,76.95,73,0,4.61,US,2022-08-03 17:12:34
437,Shieli,44.1667,66.75,73.22,51,85,8.93,KZ,2022-08-03 17:12:34
438,Maragogi,-9.0122,-35.2225,76.23,89,87,13.33,BR,2022-08-03 17:12:35
439,Sibu,2.3,111.8167,73.74,98,99,0.27,MY,2022-08-03 17:12:35
440,Taltal,-25.4,-70.4833,59.79,62,23,5.01,CL,2022-08-03 17:12:35
441,Nador,35.174,-2.9287,86.25,70,20,4.61,MA,2022-08-03 17:12:36
442,Mujiayingzi,42.1167,118.7833,75.67,79,99,6.55,CN,2022-08-03 17:12:36
443,Dongsheng,39.8161,109.9776,77.74,46,5,11.52,CN,2022-08-03 17:12:37
444,Yambio,4.5721,28.3955,70.83,90,73,2.17,SS,2022-08-03 17:12:37
445,Roald,62.5833,6.1333,66.9,72,75,20.71,NO,2022-08-03 17:12:37
446,Salani,29.957,79.7127,71.17,95,100,2.28,IN,2022-08-03 17:12:38
447,Saint-Augustin,51.226,-58.6502,73.38,46,86,8.16,CA,2022-08-03 17:12:38
448,Nevelsk,46.6733,141.8633,60.8,95,87,5.77,RU,2022-08-03 17:12:39
449,Najran,17.4924,44.1277,84.18,45,85,6.6,SA,2022-08-03 17:12:39
450,Chenghai,23.4632,116.768,78.46,90,97,12.12,CN,2022-08-03 17:12:39
451,Jasper,37.2001,-94.3502,97.11,42,0,18.41,US,2022-08-03 17:12:40
452,Ous,60.9058,61.5186,62.78,66,6,5.28,RU,2022-08-03 17:12:40
453,Gucheng,35.9115,111.3192,83.37,65,1,0.47,CN,2022-08-03 17:12:41
454,Manicore,-5.8092,-61.3003,95.81,37,41,4.43,BR,2022-08-03 17:12:41
455,Rocha,-34.4833,-54.3333,61.7,87,97,4.03,UY,2022-08-03 17:09:26
456,Lagoa,39.05,-27.9833,75.7,82,7,9.95,PT,2022-08-03 17:12:42
457,Te Anau,-45.4167,167.7167,43.56,90,100,5.7,NZ,2022-08-03 17:12:42
458,Vilyuysk,63.7553,121.6247,52.03,62,53,9.31,RU,2022-08-03 17:13:42
459,Ariquemes,-9.9133,-63.0408,99.03,26,39,3.47,BR,2022-08-03 17:13:43
460,Placido De Castro,-10.3353,-67.1856,98.29,29,22,3.42,BR,2022-08-03 17:13:43
461,Keita,14.7551,5.7749,92.44,37,82,7.14,NE,2022-08-03 17:13:44
462,Gushikawa,26.3544,127.8686,82.4,92,0,0.0,JP,2022-08-03 17:13:44
463,Sabla,12.7525,4.7077,82.85,66,98,5.68,NG,2022-08-03 17:13:44
464,Nishihara,26.1842,127.7558,82.45,86,20,6.91,JP,2022-08-03 17:13:45
465,Mankono,8.0586,-6.1897,78.89,75,100,4.34,CI,2022-08-03 17:13:45
466,Mitzic,0.7821,11.549,76.86,62,42,2.21,GA,2022-08-03 17:13:46
467,Townsville,-19.25,146.8,67.08,94,100,5.75,AU,2022-08-03 17:13:46
468,Pontianak,-0.0333,109.3333,76.98,94,40,0.0,ID,2022-08-03 17:13:47
469,Awjilah,29.1081,21.2869,94.86,24,0,12.71,LY,2022-08-03 17:13:47
470,Diamantino,-14.4086,-56.4461,97.88,14,24,8.21,BR,2022-08-03 17:13:19
471,Zabol,32.25,67.25,78.76,18,3,10.98,AF,2022-08-03 17:13:48
472,Muhos,64.808,25.9931,62.38,81,100,9.04,FI,2022-08-03 17:13:48
473,Buta,2.7858,24.73,76.73,71,57,2.48,CD,2022-08-03 17:13:48
474,Brigantine,39.4101,-74.3646,93.2,54,0,6.91,US,2022-08-03 17:13:49
475,Adrar,20.5022,-10.0711,104.61,17,24,8.66,MR,2022-08-03 17:13:49
476,Port-Gentil,-0.7193,8.7815,76.96,78,20,14.97,GA,2022-08-03 17:13:50
477,Ust-Kulom,61.6864,53.6902,65.55,60,87,4.25,RU,2022-08-03 17:13:50
478,Byron Bay,-28.65,153.6167,56.95,91,39,9.53,AU,2022-08-03 17:11:41
479,Muzhi,65.3667,64.6667,65.19,49,21,5.93,RU,2022-08-03 17:13:51
480,Ketchikan,55.3422,-131.6461,57.67,82,75,3.44,US,2022-08-03 17:13:51
481,Sambava,-14.2667,50.1667,70.0,82,10,11.83,MG,2022-08-03 17:13:51
482,Batamshinskiy,50.5594,58.2747,67.69,66,100,4.85,KZ,2022-08-03 17:13:52
483,Boyolangu,-8.1181,111.8935,73.56,94,86,5.37,ID,2022-08-03 17:13:52
484,Kamwenge,0.1866,30.4539,67.82,76,95,3.27,UG,2022-08-03 17:13:53
485,Talara,-4.5772,-81.2719,72.36,68,0,23.02,PE,2022-08-03 17:13:53
486,Tuatapere,-46.1333,167.6833,46.13,78,100,8.34,NZ,2022-08-03 17:13:53
487,Galveston,29.3669,-94.9669,98.04,64,40,16.11,US,2022-08-03 17:13:54
488,Umba,66.6871,34.3429,58.77,68,14,11.39,RU,2022-08-03 17:13:54
489,Guiratinga,-16.3494,-53.7583,93.88,16,11,8.57,BR,2022-08-03 17:13:55
490,Hommelvik,63.4108,10.7942,64.36,81,75,11.5,NO,2022-08-03 17:13:55
491,Kaohsiung,22.6163,120.3133,82.04,82,100,1.01,TW,2022-08-03 17:12:47
492,Belle Fourche,44.6714,-103.8522,87.35,22,1,5.93,US,2022-08-03 17:13:56
493,Kismayo,-0.3582,42.5454,75.79,80,20,18.03,SO,2022-08-03 17:13:56
494,Varhaug,58.6147,5.6457,62.47,87,35,13.42,NO,2022-08-03 17:13:57
495,Yerbogachen,61.2767,108.0108,56.25,96,100,10.83,RU,2022-08-03 17:13:57
496,Viedma,-40.8135,-62.9967,55.17,36,7,3.83,AR,2022-08-03 17:09:55
497,Tilichiki,60.4667,166.1,48.65,87,7,4.65,RU,2022-08-03 17:13:58
498,Faanui,-16.4833,-151.75,78.66,74,7,21.34,PF,2022-08-03 17:13:58
499,Grindavik,63.8424,-22.4338,52.27,62,75,16.11,IS,2022-08-03 17:13:59
500,Terra Santa,-2.1042,-56.4869,93.49,42,69,6.76,BR,2022-08-03 17:11:13
501,Haines Junction,60.7522,-137.5108,51.21,94,100,2.91,CA,2022-08-03 17:14:00
502,Fukue,32.6881,128.8419,81.27,89,37,6.71,JP,2022-08-03 17:14:00
503,Pierreville,46.0703,-72.8112,74.3,55,100,7.52,CA,2022-08-03 17:14:00
504,Halifax,44.6453,-63.5724,81.52,81,40,5.01,CA,2022-08-03 17:12:36
505,Lompoc,34.6391,-120.4579,77.92,82,75,4.61,US,2022-08-03 17:14:01
506,Bela,25.9333,81.9833,88.66,61,100,5.95,IN,2022-08-03 17:15:01
507,Kainantu,-6.2887,145.8655,56.39,94,72,1.68,PG,2022-08-03 17:15:02
508,Marovoay,-16.1,46.6333,77.81,38,2,9.35,MG,2022-08-03 17:15:02
509,Nixa,37.0434,-93.2944,95.95,53,43,5.99,US,2022-08-03 17:15:03
510,Souillac,-20.5167,57.5167,70.18,73,75,9.22,MU,2022-08-03 17:14:41
511,Yanggu,36.1106,115.7753,81.93,79,1,8.61,CN,2022-08-03 17:15:03
512,Isagarh,24.8333,77.8833,82.62,75,78,0.76,IN,2022-08-03 17:15:04
513,Micheweni,-4.9667,39.8333,75.24,78,1,14.74,TZ,2022-08-03 17:15:04
514,Marakkanam,12.2,79.95,78.53,82,100,5.95,IN,2022-08-03 17:15:05
515,Mingaora,34.7758,72.3625,76.96,75,10,2.39,PK,2022-08-03 17:13:29
516,Latung,5.5,120.8833,83.21,71,98,4.54,PH,2022-08-03 17:15:05
517,Hafizabad,32.0679,73.6854,91.58,53,21,7.02,PK,2022-08-03 17:15:06
518,Marataizes,-21.0433,-40.8244,75.27,71,23,9.1,BR,2022-08-03 17:15:06
519,Aswan,24.0934,32.907,99.72,14,9,11.18,EG,2022-08-03 17:15:07
520,Cabinda,-5.55,12.2,70.74,82,55,8.9,AO,2022-08-03 17:15:07
521,College,64.8569,-147.8028,60.75,90,75,5.75,US,2022-08-03 17:15:07
522,Turukhansk,65.8167,87.9833,55.0,61,48,3.47,RU,2022-08-03 17:15:08
523,Gizo,-8.103,156.8419,80.4,79,21,9.35,SB,2022-08-03 17:15:08
524,Selma,36.5708,-119.6121,92.17,48,0,6.91,US,2022-08-03 17:15:09
525,Mola Di Bari,41.0609,17.0873,88.57,49,0,9.73,IT,2022-08-03 17:15:09
526,Puerto Baquerizo Moreno,-0.9,-89.6,74.39,64,75,14.97,EC,2022-08-03 17:15:10
527,Boditi,6.9667,37.8667,58.66,80,60,3.96,ET,2022-08-03 17:15:10
528,Mezen,65.8522,44.24,62.08,63,71,9.44,RU,2022-08-03 17:15:10
529,Taoudenni,22.6783,-3.9836,114.28,7,12,3.33,ML,2022-08-03 17:15:11
530,Taranagar,28.6709,75.0351,91.89,53,52,4.54,IN,2022-08-03 17:15:11
531,Washougal,45.5826,-122.3534,75.67,68,0,8.05,US,2022-08-03 17:14:08
532,Mayor Pablo Lagerenza,-19.9309,-60.7718,93.38,25,100,15.7,PY,2022-08-03 17:15:12
533,Hay River,60.8156,-115.7999,64.38,52,75,16.11,CA,2022-08-03 17:15:12
534,Minot,48.2325,-101.2963,68.22,60,20,10.36,US,2022-08-03 17:12:05
535,Yuanping,38.7153,112.7575,73.49,78,47,1.12,CN,2022-08-03 17:15:13
536,Alice Springs,-23.7,133.8833,74.75,32,75,16.11,AU,2022-08-03 17:15:14
537,Gavar,40.3569,45.1259,62.56,88,51,8.99,AM,2022-08-03 17:15:14
538,Aripuana,-9.1667,-60.6333,97.27,31,90,3.58,BR,2022-08-03 17:15:14
539,Hami,42.8,93.45,87.15,26,0,9.4,CN,2022-08-03 17:15:15
540,Poum,-20.2333,164.0167,74.28,87,3,13.18,NC,2022-08-03 17:15:15
541,Tura,25.5198,90.2201,75.76,94,100,2.66,IN,2022-08-03 17:15:16
542,Kloulklubed,7.0419,134.2556,77.5,82,100,11.56,PW,2022-08-03 17:15:16
543,Gigmoto,13.7796,124.39,80.15,87,100,4.27,PH,2022-08-03 17:15:16
544,Aksu,41.1231,80.2644,70.83,50,96,8.37,CN,2022-08-03 17:15:17
545,Touros,-5.1989,-35.4608,82.94,61,58,9.64,BR,2022-08-03 17:12:56
546,Provideniya,64.3833,-173.3,53.06,70,36,3.98,RU,2022-08-03 17:15:18
547,Dawlatabad,36.4141,64.9053,86.05,21,0,6.02,AF,2022-08-03 17:15:18
548,Salmas,38.1973,44.7653,83.98,16,0,11.03,IR,2022-08-03 17:15:19
549,Filingue,14.3521,3.3168,94.46,36,37,2.15,NE,2022-08-03 17:15:19
550,Bac Lieu,9.285,105.7244,79.43,85,100,6.71,VN,2022-08-03 17:13:58
551,Beyneu,45.3167,55.2,88.99,22,3,7.49,KZ,2022-08-03 17:15:20
552,Caravelas,-17.7125,-39.2481,77.72,59,13,7.87,BR,2022-08-03 17:15:20
553,Saint-Paul,-21.0096,55.2707,69.91,82,72,1.07,RE,2022-08-03 17:15:21
554,Vardo,70.3705,31.1107,51.78,93,100,2.3,NO,2022-08-03 17:16:21
555,Nipawin,53.3668,-104.0009,66.24,72,0,8.05,CA,2022-08-03 17:15:12
556,Bonnyville,54.2668,-110.735,60.12,72,100,8.37,CA,2022-08-03 17:16:22
557,Sao Joaquim,-28.2939,-49.9317,68.97,47,3,6.38,BR,2022-08-03 17:16:22
558,Oranjestad,12.524,-70.027,87.75,66,40,23.02,AW,2022-08-03 17:16:23
559,Suntar,62.1444,117.6319,63.57,92,100,4.79,RU,2022-08-03 17:16:23
560,Encinitas,33.037,-117.292,84.4,75,40,6.91,US,2022-08-03 17:15:54
561,Korsakov,46.6328,142.7813,58.84,93,85,9.08,RU,2022-08-03 17:16:24
562,Gornopravdinsk,60.05,69.9,60.19,69,16,3.2,RU,2022-08-03 17:16:24
563,Yumen,40.2833,97.2,79.61,36,0,9.91,CN,2022-08-03 17:16:24
564,Huanta,-12.9333,-74.25,64.8,42,0,3.06,PE,2022-08-03 17:16:25
565,Bereda,43.2686,-7.5406,70.41,97,67,5.73,ES,2022-08-03 17:16:26
566,Pasighat,28.0667,95.3333,78.37,94,80,3.0,IN,2022-08-03 17:16:26
567,Kupang,-10.1667,123.5833,73.87,78,99,9.98,ID,2022-08-03 17:16:26
568,Morgan City,29.6994,-91.2068,81.81,81,88,5.48,US,2022-08-03 17:16:27
569,Bulgan,48.8125,103.5347,57.24,94,57,2.15,MN,2022-08-03 17:12:20
570,Raisio,60.4859,22.169,68.38,77,40,13.8,FI,2022-08-03 17:16:28
571,Hidrolandia,-4.4081,-40.4378,91.24,38,77,6.98,BR,2022-08-03 17:16:28
572,Hendaye,43.3717,-1.7738,79.56,78,20,9.22,FR,2022-08-03 17:16:28
573,Kalabo,-14.97,22.6814,74.95,29,5,3.27,ZM,2022-08-03 17:16:29
574,Batsfjord,70.6345,29.7185,53.38,93,100,2.3,NO,2022-08-03 17:11:31
575,Eagle,43.6954,-116.354,86.68,47,44,6.91,US,2022-08-03 17:13:27
576,Cartagena,10.3997,-75.5144,85.62,70,75,3.44,CO,2022-08-03 17:16:30
577,Canutama,-6.5339,-64.3831,96.67,38,99,2.84,BR,2022-08-03 17:16:30
578,Priiskovyy,51.9333,116.6333,65.7,87,100,3.76,RU,2022-08-03 17:16:30
579,Xuanhua,40.6103,115.0447,78.08,75,94,4.85,CN,2022-08-03 17:16:31
580,Talnakh,69.4865,88.3972,52.21,61,60,6.17,RU,2022-08-03 17:16:32
581,Gillette,44.2911,-105.5022,81.81,29,0,10.36,US,2022-08-03 17:16:32
582,Bacolod,10.6667,122.95,78.08,86,99,2.15,PH,2022-08-03 17:16:32
583,Srednekolymsk,67.45,153.6833,50.52,94,100,7.43,RU,2022-08-03 17:16:33
584,Mundo Nuevo,18.7,-95.5,83.77,68,4,5.06,MX,2022-08-03 17:16:33
585,Kachiry,53.0675,76.1036,61.32,54,90,9.26,KZ,2022-08-03 17:16:34
586,Urucara,-2.5364,-57.76,93.42,42,67,7.47,BR,2022-08-03 17:16:34
587,Kjollefjord,70.9457,27.3465,55.22,88,75,5.75,NO,2022-08-03 17:16:35
588,Coos Bay,43.3665,-124.2179,63.23,88,100,8.05,US,2022-08-03 17:16:35
589,Gurupa,-1.405,-51.64,93.04,40,19,4.9,BR,2022-08-03 17:16:36
590,Forrest City,35.0081,-90.7898,87.96,61,0,9.57,US,2022-08-03 17:16:36
591,Ryotsu,38.0833,138.4333,78.67,88,29,7.94,JP,2022-08-03 17:16:37
592,Banda Aceh,5.5577,95.3222,78.75,77,100,15.01,ID,2022-08-03 17:16:37
593,Baculin,7.4525,126.5842,77.92,87,89,5.88,PH,2022-08-03 17:16:37
594,Tari,12.4086,4.4914,83.1,66,93,3.67,NG,2022-08-03 17:16:38
595,Saint-Francois,46.4154,3.9054,96.24,21,0,4.61,FR,2022-08-03 17:16:39
596,Belmonte,-15.8631,-38.8828,77.2,60,6,8.03,BR,2022-08-03 17:17:40
597,Zharkent,44.1628,80.0,74.12,36,90,4.52,KZ,2022-08-03 17:17:40
598,Muravlenko,63.7898,74.523,62.06,51,78,4.94,RU,2022-08-03 17:17:40
599,Turayf,31.6725,38.6637,98.85,16,0,9.22,SA,2022-08-03 17:17:41
600,Champasak,14.75,106.0,72.73,99,91,1.05,LA,2022-08-03 17:17:41
601,Mecca,21.4267,39.8261,91.04,42,6,8.08,SA,2022-08-03 17:17:42
602,San Ignacio,17.1561,-89.0714,86.14,70,75,0.0,BZ,2022-08-03 17:17:42
603,Tamandare,-8.7597,-35.1047,78.08,85,67,12.1,BR,2022-08-03 17:17:43
604,Fallon,39.4735,-118.7774,87.93,35,0,0.0,US,2022-08-03 17:17:43
605,Cayenne,4.9333,-52.3333,82.44,1,0,4.61,GF,2022-08-03 17:17:44
606,Seeboden,46.8219,13.495,80.38,62,20,4.29,AT,2022-08-03 17:17:44
607,Kamariotissa,40.4833,25.4667,81.64,66,5,2.57,GR,2022-08-03 17:17:44
608,Mandera,3.9366,41.867,84.45,43,86,20.51,KE,2022-08-03 17:17:45
609,Khargone,21.8167,75.6,82.36,79,93,5.28,IN,2022-08-03 17:17:45
610,Avera,33.194,-82.5271,90.55,42,100,5.21,US,2022-08-03 17:17:46
611,Daru,-9.0763,143.2092,78.01,90,97,16.26,PG,2022-08-03 17:17:46
612,Kazerun,29.6195,51.6541,94.5,43,61,4.25,IR,2022-08-03 17:17:47
613,Nova Olimpia,-14.7972,-57.2881,99.9,12,9,6.24,BR,2022-08-03 17:17:47
614,Ganzhou,28.8184,115.4327,83.43,71,13,2.39,CN,2022-08-03 17:17:47
615,Constantine,36.365,6.6147,89.01,33,20,16.11,DZ,2022-08-03 17:14:52
616,Mandalgovi,45.7625,106.2708,62.6,81,39,13.35,MN,2022-08-03 17:17:48
617,Nara,34.6851,135.8049,83.97,85,26,1.5,JP,2022-08-03 17:13:46
618,Sulangan,11.1373,123.7228,83.07,74,100,3.51,PH,2022-08-03 17:17:48
619,Polunochnoye,60.8697,60.4153,59.99,76,7,4.47,RU,2022-08-03 17:17:49
620,Erenhot,43.6475,111.9767,82.09,52,78,7.49,CN,2022-08-03 17:17:49
621,Buenaventura,3.8801,-77.0312,80.71,89,75,4.61,CO,2022-08-03 17:17:50
622,Shelabolikha,53.4131,82.6167,57.36,65,91,6.91,RU,2022-08-03 17:17:50
623,Jizan,17.3333,42.6667,86.94,63,87,2.93,SA,2022-08-03 17:17:51
624,Siavonga,-16.5382,28.7088,73.26,47,1,6.33,ZM,2022-08-03 17:17:51
625,Coquimbo,-29.9533,-71.3436,56.93,62,100,4.61,CL,2022-08-03 17:17:52
626,Luderitz,-26.6481,15.1594,57.42,83,0,11.36,NA,2022-08-03 17:17:52
627,Davydovka,51.1578,39.4292,68.49,79,55,8.41,RU,2022-08-03 17:17:53
628,Santa Rita,-7.1139,-34.9781,79.47,89,75,6.91,BR,2022-08-03 17:17:53
629,Gambela,8.25,34.5833,76.33,71,84,3.71,ET,2022-08-03 17:17:53
630,Palauig,15.435,119.9045,80.94,81,100,4.43,PH,2022-08-03 17:17:54
631,Cap Malheureux,-19.9842,57.6142,67.46,73,25,5.01,MU,2022-08-03 17:17:54
632,Barcelos,41.5388,-8.6151,75.85,49,6,10.0,PT,2022-08-03 17:17:55
633,Brae,60.3964,-1.353,54.46,80,68,16.87,GB,2022-08-03 17:17:55
634,Messina,38.1933,15.5497,88.0,56,20,14.97,IT,2022-08-03 17:17:56
635,Kyzyl,51.7,94.45,64.99,68,84,5.95,RU,2022-08-03 17:17:56
636,Flin Flon,54.7682,-101.865,62.44,51,75,2.3,CA,2022-08-03 17:15:11
637,Balancan,17.8,-91.5333,87.84,57,2,13.11,MX,2022-08-03 17:17:57
638,Mgandu,-5.95,34.1333,70.74,38,83,8.3,TZ,2022-08-03 17:17:57
639,Urusha,54.05,122.9,61.7,95,100,3.0,RU,2022-08-03 17:17:57
640,Sterling,39.0062,-77.4286,92.97,53,20,5.99,US,2022-08-03 17:15:37
641,Chapais,49.7834,-74.8492,64.18,41,79,15.82,CA,2022-08-03 17:18:58
642,Biak,-0.9131,122.8766,75.43,86,74,7.31,ID,2022-08-03 17:18:59
643,Wangkui,46.8333,126.5,71.29,80,38,1.61,CN,2022-08-03 17:18:59
644,Nizwa,22.9333,57.5333,95.32,43,25,8.03,OM,2022-08-03 17:18:59
645,Chachapoyas,-6.2317,-77.869,68.2,53,45,2.51,PE,2022-08-03 17:14:48
646,Esso,55.9333,158.7,49.89,95,100,3.13,RU,2022-08-03 17:19:00
647,Egvekinot,66.3167,-179.1667,50.22,75,80,2.51,RU,2022-08-03 17:17:14
648,Madhoganj,27.1167,80.15,84.99,75,100,7.14,IN,2022-08-03 17:19:01
649,Tiarei,-17.5333,-149.3333,71.62,78,13,24.52,PF,2022-08-03 17:19:01
650,Manggar,-2.8833,108.2667,79.3,82,92,1.61,ID,2022-08-03 17:19:02
651,Prince Albert,53.2001,-105.7677,67.95,64,75,8.05,CA,2022-08-03 17:19:02
652,Chernyshevskiy,63.0128,112.4714,60.35,97,96,11.34,RU,2022-08-03 17:19:03
653,Krivosheino,57.3431,83.9261,52.12,90,25,5.55,RU,2022-08-03 17:19:03
654,Inhambane,-23.865,35.3833,65.88,66,5,7.99,MZ,2022-08-03 17:19:04
655,Teknaf,20.8624,92.3058,82.2,84,100,9.6,BD,2022-08-03 17:19:04
656,Tomatlan,19.9333,-105.25,90.09,56,64,0.36,MX,2022-08-03 17:19:04
657,Sept-Iles,50.2001,-66.3821,73.92,69,20,9.22,CA,2022-08-03 17:19:05
658,Chunhuhub,19.55,-88.6833,95.5,41,39,4.41,MX,2022-08-03 17:19:05
659,Okrika,4.7416,7.0849,82.72,73,93,10.65,NG,2022-08-03 17:19:06
660,Creel,27.75,-107.6333,73.4,44,7,2.86,MX,2022-08-03 17:19:06
661,Andenes,69.3143,16.1194,58.98,88,0,2.3,NO,2022-08-03 17:15:35
662,Grants,35.1473,-107.8514,80.83,32,0,3.44,US,2022-08-03 17:19:07
663,Vrangel,42.7297,133.0839,69.57,97,100,0.89,RU,2022-08-03 17:19:07
664,Jalu,29.0331,21.5482,95.47,23,0,12.3,LY,2022-08-03 17:19:07
665,Gonaives,19.45,-72.6833,90.39,50,6,8.79,HT,2022-08-03 17:19:08
666,Yarim,14.298,44.3779,61.81,69,99,4.41,YE,2022-08-03 17:19:08
667,Ierapetra,35.01,25.7353,82.15,50,0,15.99,GR,2022-08-03 17:19:09
668,Sao Felix Do Xingu,-6.6447,-51.995,98.4,20,22,6.35,BR,2022-08-03 17:19:09
669,Buraydah,26.326,43.975,106.25,24,48,8.01,SA,2022-08-03 17:19:11
670,Port Hueneme,34.1478,-119.1951,93.25,75,0,5.75,US,2022-08-03 17:19:11
671,Belaya Gora,68.5333,146.4167,51.17,71,100,6.89,RU,2022-08-03 17:19:12
672,Krasnoselkup,65.7,82.4667,54.34,63,14,8.9,RU,2022-08-03 17:19:12
673,Solnechnyy,50.7214,136.6319,59.76,99,99,3.87,RU,2022-08-03 17:19:13
674,Tucurui,-3.7661,-49.6725,93.27,31,72,5.61,BR,2022-08-03 17:19:13
675,Powell,40.1578,-83.0752,89.89,66,0,10.36,US,2022-08-03 17:19:09
676,Matiguas,12.8373,-85.4622,78.66,80,98,10.78,NI,2022-08-03 17:19:14
677,Togur,58.3631,82.8265,55.8,69,29,5.95,RU,2022-08-03 17:19:14
678,Nuuk,64.1835,-51.7216,50.61,81,100,12.66,GL,2022-08-03 17:19:15
679,Madimba,-10.4,40.3333,73.54,79,0,13.47,TZ,2022-08-03 17:19:15
680,Grand Gaube,-20.0064,57.6608,70.2,73,30,5.01,MU,2022-08-03 17:19:15
681,Sao Jose Da Coroa Grande,-8.8978,-35.1478,77.29,86,79,13.49,BR,2022-08-03 17:19:16
682,Skawina,49.9752,19.8287,80.78,42,0,2.3,PL,2022-08-03 17:19:16
683,Berdigestyakh,62.0989,126.6992,64.49,86,97,4.05,RU,2022-08-03 17:19:17
684,Nueva Loja,0.0847,-76.8828,80.62,74,75,5.75,EC,2022-08-03 17:19:17
685,Weligama,5.9667,80.4167,77.65,88,99,16.53,LK,2022-08-03 17:19:17
686,Erzin,36.9559,36.2,78.93,87,12,5.14,TR,2022-08-03 17:20:18
687,Tawau,4.2498,117.8871,77.13,85,65,2.28,MY,2022-08-03 17:20:18
688,Campechuela,20.2342,-77.2789,90.84,47,0,6.55,CU,2022-08-03 17:20:19
689,Redmond,47.674,-122.1215,70.81,72,14,5.99,US,2022-08-03 17:19:18
690,Mandali,33.7499,45.5541,108.73,10,0,9.8,IQ,2022-08-03 17:20:19
691,Kudahuvadhoo,2.6708,72.8944,81.48,77,76,21.27,MV,2022-08-03 17:20:20
692,Cuddapah,14.4667,78.8167,79.61,82,100,2.93,IN,2022-08-03 17:18:42
693,Umm Kaddadah,13.6017,26.6876,82.11,53,69,4.56,SD,2022-08-03 17:20:20
694,Salinopolis,-0.6136,-47.3561,84.31,67,49,13.51,BR,2022-08-03 17:20:21
695,Cuiluan,47.72,128.648,67.59,93,37,2.04,CN,2022-08-03 17:20:21
696,Itoman,26.1247,127.6694,83.17,89,20,8.05,JP,2022-08-03 17:20:22
697,Shimanovsk,52.0,127.7,65.21,83,100,4.79,RU,2022-08-03 17:20:22
698,Moussoro,13.6408,16.4901,89.28,46,61,8.63,TD,2022-08-03 17:20:22
699,Inza,53.8533,46.3586,65.46,79,44,5.79,RU,2022-08-03 17:20:23
700,Iwanai,42.9744,140.5089,63.5,97,82,6.42,JP,2022-08-03 17:20:23
701,Olafsvik,64.8945,-23.7142,50.27,61,22,5.37,IS,2022-08-03 17:20:24
702,Gangakher,18.95,76.75,82.24,76,99,5.06,IN,2022-08-03 17:20:24
703,Les Cayes,18.2,-73.75,85.91,64,96,9.95,HT,2022-08-03 17:20:25
704,Takayama,36.1333,137.25,68.88,96,94,0.92,JP,2022-08-03 17:20:25
705,Qingdao,36.0986,120.3719,80.2,100,20,8.95,CN,2022-08-03 17:20:25
706,Los Llanos De Aridane,28.6585,-17.9182,78.12,76,75,18.41,ES,2022-08-03 17:19:21
707,Bandarbeyla,9.4942,50.8122,76.62,82,45,32.46,SO,2022-08-03 17:20:26
708,Pombas,17.1503,-25.0201,78.58,77,46,9.73,CV,2022-08-03 17:20:27
709,Keti Bandar,24.1447,67.4497,82.24,84,59,9.73,PK,2022-08-03 17:20:27
710,Jumla,29.2747,82.1838,63.37,96,76,2.1,NP,2022-08-03 17:20:27
711,Bedong,5.7274,100.5088,79.92,91,99,1.01,MY,2022-08-03 17:20:28
712,Katherine,-14.4667,132.2667,79.12,57,75,4.61,AU,2022-08-03 17:20:28
713,Birin,26.8865,88.0718,65.05,93,90,3.58,NP,2022-08-03 17:20:29
714,Gao,16.6362,1.637,101.26,20,14,11.92,ML,2022-08-03 17:20:29
715,Vilhena,-12.7406,-60.1458,89.82,29,0,12.66,BR,2022-08-03 17:20:30
716,Cedar City,37.6775,-113.0619,81.39,50,0,4.61,US,2022-08-03 17:19:03
717,Bumba,2.1833,22.4667,77.65,73,64,2.21,CD,2022-08-03 17:20:30
718,Tarauaca,-8.1614,-70.7656,89.92,52,75,2.06,BR,2022-08-03 17:20:31
719,Veraval,20.9,70.3667,82.27,84,91,7.27,IN,2022-08-03 17:20:31
